Satellite-POLLEO11-To-Place-POL_Mid_Access.csv

"Access","Start Time (UTCG)","Stop Time (UTCG)","Duration (sec)"
1,1 Jan 2000 17:25:29.253,1 Jan 2000 17:37:56.214,746.961
2,1 Jan 2000 19:13:43.850,1 Jan 2000 19:26:37.528,773.678
3,1 Jan 2000 21:04:16.224,1 Jan 2000 21:15:39.090,682.865
4,1 Jan 2000 22:54:25.793,1 Jan 2000 23:06:03.754,697.961
5,2 Jan 2000 00:43:16.113,2 Jan 2000 00:56:21.230,785.117
6,2 Jan 2000 02:32:06.238,2 Jan 2000 02:43:52.328,706.090
7,2 Jan 2000 16:12:42.961,2 Jan 2000 16:22:13.362,570.401
8,2 Jan 2000 17:58:31.447,2 Jan 2000 18:11:39.927,788.480
9,2 Jan 2000 19:48:04.576,2 Jan 2000 20:00:18.207,733.632
10,2 Jan 2000 21:38:45.868,2 Jan 2000 21:49:54.978,669.110
11,2 Jan 2000 23:28:15.917,2 Jan 2000 23:40:37.172,741.255
12,3 Jan 2000 01:16:53.283,3 Jan 2000 01:29:58.722,785.439
13,3 Jan 2000 03:06:32.741,3 Jan 2000 03:15:20.466,527.725
14,3 Jan 2000 16:44:26.607,3 Jan 2000 16:56:30.546,723.940
15,3 Jan 2000 18:32:15.272,3 Jan 2000 18:45:16.606,781.334
16,3 Jan 2000 20:22:39.285,3 Jan 2000 20:34:10.902,691.617
17,3 Jan 2000 22:12:58.475,3 Jan 2000 22:24:26.671,688.197
18,4 Jan 2000 00:01:55.304,4 Jan 2000 00:14:54.047,778.742
19,4 Jan 2000 01:50:39.389,4 Jan 2000 02:02:52.507,733.118
20,4 Jan 2000 15:32:10.545,4 Jan 2000 15:40:29.880,499.336
21,4 Jan 2000 17:17:15.284,4 Jan 2000 17:30:18.265,782.981
22,4 Jan 2000 19:06:29.733,4 Jan 2000 19:18:55.353,745.620
23,4 Jan 2000 20:57:12.007,4 Jan 2000 21:08:21.585,669.578
24,4 Jan 2000 22:46:52.748,4 Jan 2000 22:59:01.906,729.158
25,5 Jan 2000 00:35:31.820,5 Jan 2000 00:48:41.419,789.599
26,5 Jan 2000 02:24:52.015,5 Jan 2000 02:34:44.300,592.285
27,5 Jan 2000 16:03:28.532,5 Jan 2000 16:15:02.917,694.385
28,5 Jan 2000 17:50:48.950,5 Jan 2000 18:03:55.843,786.893
29,5 Jan 2000 19:41:02.181,5 Jan 2000 19:52:44.069,701.888
30,5 Jan 2000 21:31:29.765,5 Jan 2000 21:42:49.872,680.107
31,5 Jan 2000 23:20:34.286,5 Jan 2000 23:33:24.691,770.404
32,6 Jan 2000 01:09:14.325,6 Jan 2000 01:21:48.303,753.978
33,6 Jan 2000 03:01:03.059,6 Jan 2000 03:04:00.929,177.870
34,6 Jan 2000 14:51:51.824,6 Jan 2000 14:58:35.457,403.633
35,6 Jan 2000 16:36:02.383,6 Jan 2000 16:48:55.895,773.512
36,6 Jan 2000 18:24:56.229,6 Jan 2000 18:37:33.227,756.999
37,6 Jan 2000 20:15:36.991,6 Jan 2000 20:26:49.546,672.556
38,6 Jan 2000 22:05:28.638,6 Jan 2000 22:17:25.714,717.076
39,6 Jan 2000 23:54:10.779,7 Jan 2000 00:07:21.156,790.377
40,7 Jan 2000 01:43:16.885,7 Jan 2000 01:53:59.847,642.962
41,7 Jan 2000 15:22:35.667,7 Jan 2000 15:33:32.693,657.026
42,7 Jan 2000 17:09:25.099,7 Jan 2000 17:22:35.068,789.969
43,7 Jan 2000 18:59:25.251,7 Jan 2000 19:11:18.489,713.238
44,7 Jan 2000 20:49:59.624,7 Jan 2000 21:01:13.664,674.040
45,7 Jan 2000 22:39:12.897,7 Jan 2000 22:51:53.382,760.485
46,8 Jan 2000 00:27:50.631,8 Jan 2000 00:40:40.143,769.511
47,8 Jan 2000 02:18:25.209,8 Jan 2000 02:24:29.355,364.145
48,8 Jan 2000 14:12:00.403,8 Jan 2000 14:16:16.531,256.128
49,8 Jan 2000 15:54:53.018,8 Jan 2000 16:07:32.575,759.557
50,8 Jan 2000 17:43:24.342,8 Jan 2000 17:56:11.683,767.341
51,8 Jan 2000 19:34:01.030,8 Jan 2000 19:45:18.932,677.902
52,8 Jan 2000 21:24:03.442,8 Jan 2000 21:35:48.911,705.469
53,8 Jan 2000 23:12:49.970,8 Jan 2000 23:25:58.152,788.182
54,9 Jan 2000 01:01:45.647,9 Jan 2000 01:13:08.852,683.205
55,9 Jan 2000 14:41:48.949,9 Jan 2000 14:51:58.975,610.026
56,9 Jan 2000 16:28:03.927,9 Jan 2000 16:41:14.125,790.198
57,9 Jan 2000 18:17:48.825,9 Jan 2000 18:29:54.044,725.219
58,9 Jan 2000 20:08:28.046,9 Jan 2000 20:19:38.313,670.268
59,9 Jan 2000 21:57:50.981,9 Jan 2000 22:10:20.376,749.394
60,9 Jan 2000 23:46:27.985,9 Jan 2000 23:59:28.357,780.373
61,10 Jan 2000 01:36:25.307,10 Jan 2000 01:44:17.008,471.700
62,10 Jan 2000 15:13:47.488,10 Jan 2000 15:26:07.997,740.510
63,10 Jan 2000 17:01:54.327,10 Jan 2000 17:14:50.564,776.237
64,10 Jan 2000 18:52:24.392,10 Jan 2000 19:03:49.764,685.372
65,10 Jan 2000 20:42:37.033,10 Jan 2000 20:54:11.830,694.796
66,10 Jan 2000 22:31:29.225,10 Jan 2000 22:44:32.608,783.383
67,11 Jan 2000 00:20:17.255,11 Jan 2000 00:32:12.388,715.132
68,11 Jan 2000 14:01:09.837,11 Jan 2000 14:10:20.317,550.480
69,11 Jan 2000 15:46:45.638,11 Jan 2000 15:59:52.824,787.187
70,11 Jan 2000 17:36:13.227,11 Jan 2000 17:48:30.586,737.359
71,11 Jan 2000 19:26:55.082,11 Jan 2000 19:38:04.061,668.979
72,11 Jan 2000 21:16:28.379,11 Jan 2000 21:28:45.932,737.553
73,11 Jan 2000 23:05:06.120,11 Jan 2000 23:18:13.225,787.105
74,12 Jan 2000 00:54:38.955,12 Jan 2000 01:03:48.352,549.397
75,12 Jan 2000 14:32:46.195,12 Jan 2000 14:44:41.781,715.587
76,12 Jan 2000 16:20:26.422,12 Jan 2000 16:33:29.708,783.286
77,12 Jan 2000 18:10:47.365,12 Jan 2000 18:22:22.004,694.638
78,12 Jan 2000 20:01:09.294,12 Jan 2000 20:12:34.800,685.506
79,12 Jan 2000 21:50:08.370,12 Jan 2000 22:03:04.735,776.365
80,12 Jan 2000 23:38:51.008,12 Jan 2000 23:51:11.166,740.158
81,13 Jan 2000 13:20:40.980,13 Jan 2000 13:28:34.120,473.140
82,13 Jan 2000 15:05:30.460,13 Jan 2000 15:18:30.969,780.509
83,13 Jan 2000 16:54:38.767,13 Jan 2000 17:07:07.975,749.208
84,13 Jan 2000 18:45:20.848,13 Jan 2000 18:56:31.074,670.227
85,13 Jan 2000 20:35:04.940,13 Jan 2000 20:47:10.353,725.413
86,13 Jan 2000 22:23:44.817,13 Jan 2000 22:36:54.990,790.173
87,14 Jan 2000 00:13:00.204,14 Jan 2000 00:23:09.384,609.181
88,14 Jan 2000 13:51:49.647,14 Jan 2000 14:03:13.427,683.780
89,14 Jan 2000 15:39:00.839,14 Jan 2000 15:52:08.960,788.120
90,14 Jan 2000 17:29:10.283,14 Jan 2000 17:40:55.569,705.286
91,14 Jan 2000 19:19:40.146,14 Jan 2000 19:30:58.149,678.003
92,14 Jan 2000 21:08:47.255,14 Jan 2000 21:21:34.751,767.495
93,14 Jan 2000 22:57:26.408,14 Jan 2000 23:10:05.703,759.294
94,15 Jan 2000 00:48:43.761,15 Jan 2000 00:52:56.646,252.885
95,15 Jan 2000 12:40:28.281,15 Jan 2000 12:46:34.527,366.246
96,15 Jan 2000 14:24:18.621,15 Jan 2000 14:37:08.338,769.716
97,15 Jan 2000 16:13:05.733,15 Jan 2000 16:25:46.046,760.313
98,15 Jan 2000 18:03:45.517,15 Jan 2000 18:14:59.472,673.955
99,15 Jan 2000 19:53:40.511,15 Jan 2000 20:05:33.935,713.424
100,15 Jan 2000 21:42:23.867,15 Jan 2000 21:55:33.866,789.999
101,15 Jan 2000 23:31:26.414,15 Jan 2000 23:42:22.771,656.357
102,16 Jan 2000 13:10:58.555,16 Jan 2000 13:21:42.244,643.688
103,16 Jan 2000 14:57:37.788,16 Jan 2000 15:10:48.152,790.365
104,16 Jan 2000 16:47:33.476,16 Jan 2000 16:59:30.353,716.878
105,16 Jan 2000 18:38:09.562,16 Jan 2000 18:49:22.180,672.618
106,16 Jan 2000 20:27:25.720,16 Jan 2000 20:40:02.895,757.175
107,16 Jan 2000 22:16:03.067,16 Jan 2000 22:28:56.393,773.327
108,17 Jan 2000 00:06:24.148,17 Jan 2000 00:13:05.959,401.811
109,17 Jan 2000 12:00:55.348,17 Jan 2000 12:03:57.994,182.647
110,17 Jan 2000 13:43:10.396,17 Jan 2000 13:55:44.665,754.269
111,17 Jan 2000 15:31:34.397,17 Jan 2000 15:44:24.651,770.254
112,17 Jan 2000 17:22:09.318,17 Jan 2000 17:33:29.302,679.984
113,17 Jan 2000 19:12:14.953,17 Jan 2000 19:23:57.012,702.059
114,17 Jan 2000 21:01:03.090,17 Jan 2000 21:14:10.057,786.967
115,17 Jan 2000 22:49:56.144,17 Jan 2000 23:01:29.999,693.854
116,18 Jan 2000 12:30:13.989,18 Jan 2000 12:40:07.195,593.206
117,18 Jan 2000 14:16:17.483,18 Jan 2000 14:29:27.120,789.637
118,18 Jan 2000 16:05:57.268,18 Jan 2000 16:18:06.226,728.958
119,18 Jan 2000 17:56:37.547,18 Jan 2000 18:07:47.147,669.599
120,18 Jan 2000 19:46:03.611,18 Jan 2000 19:58:29.416,745.805
121,18 Jan 2000 21:34:40.692,18 Jan 2000 21:47:43.554,782.862
122,18 Jan 2000 23:24:29.481,18 Jan 2000 23:32:47.518,498.037
123,19 Jan 2000 13:02:06.125,19 Jan 2000 13:14:19.628,733.502
124,19 Jan 2000 14:50:05.007,19 Jan 2000 15:03:03.626,778.619
125,19 Jan 2000 16:40:32.526,19 Jan 2000 16:52:00.572,688.046
126,19 Jan 2000 18:30:48.146,19 Jan 2000 18:42:19.910,691.764
127,19 Jan 2000 20:19:42.329,19 Jan 2000 20:32:43.770,781.441
128,19 Jan 2000 22:08:28.475,19 Jan 2000 22:20:31.999,723.524
129,20 Jan 2000 11:49:37.667,20 Jan 2000 11:58:26.577,528.910
130,20 Jan 2000 13:35:00.129,20 Jan 2000 13:48:05.669,785.540
131,20 Jan 2000 15:24:21.990,20 Jan 2000 15:36:43.049,741.059
132,20 Jan 2000 17:15:04.177,20 Jan 2000 17:26:13.266,669.089
133,20 Jan 2000 19:04:40.767,20 Jan 2000 19:16:54.588,733.821
134,20 Jan 2000 20:53:19.017,20 Jan 2000 21:06:27.443,788.426
135,20 Jan 2000 22:42:45.871,20 Jan 2000 22:52:15.281,569.410
136,21 Jan 2000 12:21:06.233,21 Jan 2000 12:32:52.813,706.580
137,21 Jan 2000 14:08:37.790,21 Jan 2000 14:21:42.824,785.035
138,21 Jan 2000 15:58:55.446,21 Jan 2000 16:10:33.232,697.786
139,21 Jan 2000 17:49:19.981,21 Jan 2000 18:00:42.964,682.983
140,21 Jan 2000 19:38:21.412,21 Jan 2000 19:51:15.223,773.811
141,21 Jan 2000 21:27:02.783,21 Jan 2000 21:39:29.424,746.641
142,22 Jan 2000 11:09:12.881,22 Jan 2000 11:16:37.156,444.276
143,22 Jan 2000 12:53:45.955,22 Jan 2000 13:06:43.602,777.647
144,22 Jan 2000 14:42:47.938,22 Jan 2000 14:55:20.663,752.726
145,22 Jan 2000 16:33:29.585,22 Jan 2000 16:44:40.697,671.112
146,22 Jan 2000 18:23:17.042,22 Jan 2000 18:35:18.718,721.677
147,22 Jan 2000 20:11:57.845,22 Jan 2000 20:25:08.293,790.449
148,22 Jan 2000 22:01:08.853,22 Jan 2000 22:11:33.748,624.895
149,23 Jan 2000 11:40:11.275,23 Jan 2000 11:51:23.679,672.403
150,23 Jan 2000 13:27:12.967,23 Jan 2000 13:40:22.072,789.106
151,23 Jan 2000 15:17:18.413,23 Jan 2000 15:29:07.184,708.771
152,23 Jan 2000 17:07:50.395,23 Jan 2000 17:19:06.496,676.101
153,23 Jan 2000 18:57:00.186,23 Jan 2000 19:09:44.638,764.452
154,23 Jan 2000 20:45:38.612,23 Jan 2000 20:58:22.739,764.128
155,23 Jan 2000 22:36:34.017,23 Jan 2000 22:41:42.538,308.521
156,24 Jan 2000 10:29:07.822,24 Jan 2000 10:34:30.791,322.970
157,24 Jan 2000 12:12:35.195,24 Jan 2000 12:25:20.682,765.488
158,24 Jan 2000 14:01:15.400,24 Jan 2000 14:13:58.917,763.517
159,24 Jan 2000 15:51:53.959,24 Jan 2000 16:03:09.534,675.575
160,24 Jan 2000 17:41:52.279,24 Jan 2000 17:53:42.108,709.829
161,24 Jan 2000 19:30:36.965,24 Jan 2000 19:43:46.320,789.355
162,24 Jan 2000 21:19:36.274,24 Jan 2000 21:30:45.116,668.842
163,25 Jan 2000 10:59:22.061,25 Jan 2000 11:09:51.435,629.373
164,25 Jan 2000 12:45:50.748,25 Jan 2000 12:59:01.217,790.470
165,25 Jan 2000 14:35:41.757,25 Jan 2000 14:47:42.323,720.566
166,25 Jan 2000 16:26:19.365,25 Jan 2000 16:37:30.782,671.417
167,25 Jan 2000 18:15:38.493,25 Jan 2000 18:28:12.253,753.761
168,25 Jan 2000 20:04:15.599,25 Jan 2000 20:17:12.313,776.714
169,25 Jan 2000 21:54:25.167,25 Jan 2000 22:01:40.218,435.052
170,26 Jan 2000 09:50:42.600,26 Jan 2000 09:50:47.433,4.833
171,26 Jan 2000 11:31:28.153,26 Jan 2000 11:43:56.628,748.475
172,26 Jan 2000 13:19:44.638,26 Jan 2000 13:32:37.655,773.017
173,26 Jan 2000 15:10:17.549,26 Jan 2000 15:21:39.811,682.262
174,26 Jan 2000 17:00:26.348,26 Jan 2000 17:12:05.098,698.749
175,26 Jan 2000 18:49:16.214,26 Jan 2000 19:02:21.727,785.512
176,26 Jan 2000 20:38:06.890,26 Jan 2000 20:49:50.651,703.761
177,27 Jan 2000 10:18:39.801,27 Jan 2000 10:28:14.897,575.096
178,27 Jan 2000 12:04:31.325,27 Jan 2000 12:17:40.079,788.754
179,27 Jan 2000 13:54:05.802,27 Jan 2000 14:06:18.503,732.701
180,27 Jan 2000 15:44:46.923,27 Jan 2000 15:55:56.090,669.166
181,27 Jan 2000 17:34:16.175,27 Jan 2000 17:46:38.331,742.155
182,27 Jan 2000 19:22:53.464,27 Jan 2000 19:35:58.441,784.977
183,27 Jan 2000 21:12:34.660,27 Jan 2000 21:21:16.774,522.114
184,28 Jan 2000 10:50:25.180,28 Jan 2000 11:02:31.090,725.910
185,28 Jan 2000 12:38:15.897,28 Jan 2000 12:51:16.715,780.818
186,28 Jan 2000 14:28:40.636,28 Jan 2000 14:40:11.518,690.882
187,28 Jan 2000 16:18:59.134,28 Jan 2000 16:30:28.008,688.874
188,28 Jan 2000 18:07:55.422,28 Jan 2000 18:20:54.720,779.297
189,28 Jan 2000 19:56:39.887,28 Jan 2000 20:08:51.182,731.296
190,29 Jan 2000 09:38:06.570,29 Jan 2000 09:46:32.033,505.463
191,29 Jan 2000 11:23:14.925,29 Jan 2000 11:36:18.464,783.538
192,29 Jan 2000 13:12:30.870,29 Jan 2000 13:24:55.588,744.718
193,29 Jan 2000 15:03:13.160,29 Jan 2000 15:14:22.600,669.440
194,29 Jan 2000 16:52:53.074,29 Jan 2000 17:05:03.148,730.074
195,29 Jan 2000 18:41:31.968,29 Jan 2000 18:54:41.367,789.399
196,29 Jan 2000 20:30:53.408,29 Jan 2000 20:40:41.342,587.935
197,30 Jan 2000 10:09:26.739,30 Jan 2000 10:21:03.633,696.894
198,30 Jan 2000 11:56:49.397,30 Jan 2000 12:09:55.948,786.551
199,30 Jan 2000 13:47:03.533,30 Jan 2000 13:58:44.587,701.054
200,30 Jan 2000 15:37:30.533,30 Jan 2000 15:48:51.176,680.642
201,30 Jan 2000 17:26:34.428,30 Jan 2000 17:39:25.522,771.094
202,30 Jan 2000 19:15:14.705,30 Jan 2000 19:27:47.298,752.593
203,30 Jan 2000 21:07:14.135,30 Jan 2000 21:09:47.508,153.373
204,31 Jan 2000 08:57:46.540,31 Jan 2000 09:04:38.708,412.168
205,31 Jan 2000 10:42:01.777,31 Jan 2000 10:54:56.157,774.380
206,31 Jan 2000 12:30:57.255,31 Jan 2000 12:43:33.416,756.162
207,31 Jan 2000 14:21:38.225,31 Jan 2000 14:32:50.456,672.231
208,31 Jan 2000 16:11:29.043,31 Jan 2000 16:23:27.017,717.973
209,31 Jan 2000 18:00:10.904,31 Jan 2000 18:13:21.326,790.422
210,31 Jan 2000 19:49:17.926,31 Jan 2000 19:59:57.448,639.522
211,1 Feb 2000 09:28:33.452,1 Feb 2000 09:39:33.637,660.185
212,1 Feb 2000 11:15:25.352,1 Feb 2000 11:28:35.181,789.829
213,1 Feb 2000 13:05:26.580,1 Feb 2000 13:17:18.918,712.338
214,1 Feb 2000 14:56:00.503,1 Feb 2000 15:07:14.914,674.411
215,1 Feb 2000 16:45:13.074,1 Feb 2000 16:57:54.354,761.279
216,1 Feb 2000 18:33:50.926,1 Feb 2000 18:46:39.428,768.501
217,1 Feb 2000 20:24:29.200,1 Feb 2000 20:30:23.243,354.043
218,2 Feb 2000 08:17:51.875,2 Feb 2000 08:22:22.813,270.938
219,2 Feb 2000 10:00:52.131,2 Feb 2000 10:13:32.922,760.791
220,2 Feb 2000 11:49:25.237,2 Feb 2000 12:02:11.833,766.596
221,2 Feb 2000 13:40:02.328,2 Feb 2000 13:51:19.733,677.405
222,2 Feb 2000 15:30:03.936,2 Feb 2000 15:41:50.250,706.314
223,2 Feb 2000 17:18:50.086,2 Feb 2000 17:31:58.524,788.438
224,2 Feb 2000 19:07:46.439,2 Feb 2000 19:19:06.908,680.469
225,3 Feb 2000 08:47:46.226,3 Feb 2000 08:58:00.228,614.002
226,3 Feb 2000 10:34:03.971,3 Feb 2000 10:47:14.260,790.289
227,3 Feb 2000 12:23:50.105,3 Feb 2000 12:35:54.393,724.288
228,3 Feb 2000 14:14:29.035,3 Feb 2000 14:25:39.491,670.457
229,3 Feb 2000 16:03:51.206,3 Feb 2000 16:16:21.468,750.262
230,3 Feb 2000 17:52:28.212,3 Feb 2000 18:05:27.910,779.698
231,3 Feb 2000 19:42:27.789,3 Feb 2000 19:50:12.619,464.830
232,4 Feb 2000 09:19:46.297,4 Feb 2000 09:32:08.454,742.157
233,4 Feb 2000 11:07:55.072,4 Feb 2000 11:20:50.689,775.617
234,4 Feb 2000 12:58:25.733,4 Feb 2000 13:09:50.458,684.726
235,4 Feb 2000 14:48:37.625,4 Feb 2000 15:00:13.179,695.553
236,4 Feb 2000 16:37:29.340,4 Feb 2000 16:50:33.168,783.828
237,4 Feb 2000 18:26:17.860,4 Feb 2000 18:38:10.831,712.971
238,5 Feb 2000 08:07:06.465,5 Feb 2000 08:16:22.017,555.553
239,5 Feb 2000 09:52:45.455,5 Feb 2000 10:05:52.995,787.539
240,5 Feb 2000 11:42:14.433,5 Feb 2000 11:54:30.869,736.436
241,5 Feb 2000 13:32:56.174,5 Feb 2000 13:44:05.150,668.976
242,5 Feb 2000 15:22:28.663,5 Feb 2000 15:34:47.126,738.463
243,5 Feb 2000 17:11:06.294,5 Feb 2000 17:24:13.024,786.730
244,5 Feb 2000 19:00:40.696,5 Feb 2000 19:09:44.921,544.225
245,6 Feb 2000 08:38:44.668,6 Feb 2000 08:50:42.380,717.713
246,6 Feb 2000 10:26:26.996,6 Feb 2000 10:39:29.823,782.827
247,6 Feb 2000 12:16:48.724,6 Feb 2000 12:28:22.596,693.871
248,6 Feb 2000 14:07:09.991,6 Feb 2000 14:18:36.135,686.144
249,6 Feb 2000 15:56:08.499,6 Feb 2000 16:09:05.464,776.965
250,6 Feb 2000 17:44:51.472,6 Feb 2000 17:57:09.952,738.480
251,7 Feb 2000 07:26:36.689,7 Feb 2000 07:34:36.535,479.846
252,7 Feb 2000 09:11:30.031,7 Feb 2000 09:24:31.190,781.159
253,7 Feb 2000 11:00:39.877,7 Feb 2000 11:13:08.200,748.324
254,7 Feb 2000 12:51:22.031,7 Feb 2000 13:02:32.062,670.031
255,7 Feb 2000 14:41:05.294,7 Feb 2000 14:53:11.623,726.328
256,7 Feb 2000 16:29:44.958,7 Feb 2000 16:42:55.019,790.062
257,7 Feb 2000 18:19:01.480,7 Feb 2000 18:29:06.620,605.139
258,8 Feb 2000 07:57:47.738,8 Feb 2000 08:09:14.211,686.473
259,8 Feb 2000 09:45:01.229,8 Feb 2000 09:58:09.073,787.844
260,8 Feb 2000 11:35:11.635,8 Feb 2000 11:46:56.066,704.431
261,8 Feb 2000 13:25:40.953,8 Feb 2000 13:36:59.446,678.493
262,8 Feb 2000 15:14:47.412,8 Feb 2000 15:27:35.634,768.222
263,8 Feb 2000 17:03:26.764,8 Feb 2000 17:16:04.796,758.032
264,8 Feb 2000 18:54:50.643,8 Feb 2000 18:58:47.504,236.861
265,9 Feb 2000 06:46:22.382,9 Feb 2000 06:52:38.342,375.961
266,9 Feb 2000 08:30:17.930,9 Feb 2000 08:43:08.630,770.700
267,9 Feb 2000 10:19:06.725,9 Feb 2000 10:31:46.226,759.501
268,9 Feb 2000 12:09:46.774,9 Feb 2000 12:21:00.356,673.581
269,9 Feb 2000 13:59:40.946,9 Feb 2000 14:11:35.258,714.312
270,9 Feb 2000 15:48:23.984,9 Feb 2000 16:01:34.106,790.121
271,9 Feb 2000 17:37:27.377,9 Feb 2000 17:48:20.526,653.150
272,10 Feb 2000 07:16:56.203,10 Feb 2000 07:27:43.275,647.072
273,10 Feb 2000 09:03:37.984,10 Feb 2000 09:16:48.280,790.296
274,10 Feb 2000 10:53:34.793,10 Feb 2000 11:05:30.764,715.971
275,10 Feb 2000 12:44:10.478,10 Feb 2000 12:55:23.417,672.939
276,10 Feb 2000 14:33:25.916,10 Feb 2000 14:46:03.909,757.994
277,10 Feb 2000 16:22:03.340,10 Feb 2000 16:34:55.769,772.429
278,10 Feb 2000 18:12:27.532,10 Feb 2000 18:19:00.535,393.003
279,11 Feb 2000 06:06:43.761,11 Feb 2000 06:10:07.285,203.525
280,11 Feb 2000 07:49:09.426,11 Feb 2000 08:01:45.048,755.622
281,11 Feb 2000 09:37:35.252,11 Feb 2000 09:50:24.798,769.546
282,11 Feb 2000 11:28:10.632,11 Feb 2000 11:39:30.078,679.446
283,11 Feb 2000 13:18:15.480,11 Feb 2000 13:29:58.363,702.883
284,11 Feb 2000 15:07:03.211,11 Feb 2000 15:20:10.494,787.283
285,11 Feb 2000 16:55:56.880,11 Feb 2000 17:07:28.183,691.304
286,12 Feb 2000 06:36:11.094,12 Feb 2000 06:46:08.568,597.474
287,12 Feb 2000 08:22:17.469,12 Feb 2000 08:35:27.267,789.798
288,12 Feb 2000 10:11:58.531,12 Feb 2000 10:24:06.561,728.030
289,12 Feb 2000 12:02:38.571,12 Feb 2000 12:13:48.306,669.735
290,12 Feb 2000 13:52:03.857,12 Feb 2000 14:04:30.548,746.691
291,12 Feb 2000 15:40:40.903,12 Feb 2000 15:53:43.188,782.285
292,12 Feb 2000 17:30:31.695,12 Feb 2000 17:38:43.478,491.782
293,13 Feb 2000 07:08:04.842,13 Feb 2000 07:20:20.128,735.285
294,13 Feb 2000 08:56:05.707,13 Feb 2000 09:09:03.754,778.047
295,13 Feb 2000 10:46:33.877,13 Feb 2000 10:58:01.244,687.367
296,13 Feb 2000 12:36:48.772,13 Feb 2000 12:48:21.265,692.493
297,13 Feb 2000 14:25:42.452,13 Feb 2000 14:38:44.391,781.939
298,13 Feb 2000 16:14:29.040,13 Feb 2000 16:26:30.560,721.520
299,14 Feb 2000 05:55:34.061,14 Feb 2000 06:04:28.459,534.398
300,14 Feb 2000 07:40:59.884,14 Feb 2000 07:54:05.858,785.973
301,14 Feb 2000 09:30:23.172,14 Feb 2000 09:42:43.316,740.144
302,14 Feb 2000 11:21:05.300,14 Feb 2000 11:32:14.333,669.033
303,14 Feb 2000 13:10:41.074,14 Feb 2000 13:22:55.814,734.740
304,14 Feb 2000 14:59:19.188,14 Feb 2000 15:12:27.317,788.129
305,14 Feb 2000 16:48:47.453,14 Feb 2000 16:58:12.081,564.628
306,15 Feb 2000 06:27:04.601,15 Feb 2000 06:38:53.466,708.865
307,15 Feb 2000 08:14:38.317,15 Feb 2000 08:27:42.941,784.624
308,15 Feb 2000 10:04:56.807,15 Feb 2000 10:16:33.801,696.994
309,15 Feb 2000 11:55:20.713,15 Feb 2000 12:06:44.296,683.584
310,15 Feb 2000 13:44:21.552,15 Feb 2000 13:57:16.008,774.456
311,15 Feb 2000 15:33:03.217,15 Feb 2000 15:45:28.313,745.097
312,16 Feb 2000 05:15:08.217,16 Feb 2000 05:22:39.888,451.671
313,16 Feb 2000 06:59:45.452,16 Feb 2000 07:12:43.849,778.396
314,16 Feb 2000 08:48:49.016,16 Feb 2000 09:01:20.880,751.864
315,16 Feb 2000 10:39:30.794,16 Feb 2000 10:50:41.657,670.863
316,16 Feb 2000 12:29:17.421,16 Feb 2000 12:41:20.013,722.592
317,16 Feb 2000 14:17:57.978,16 Feb 2000 14:31:08.389,790.411
318,16 Feb 2000 16:07:10.033,16 Feb 2000 16:17:31.161,621.129
319,17 Feb 2000 05:46:09.246,17 Feb 2000 05:57:24.528,675.282
320,17 Feb 2000 07:33:13.305,17 Feb 2000 07:46:22.192,788.887
321,17 Feb 2000 09:23:19.759,17 Feb 2000 09:35:07.660,707.901
322,17 Feb 2000 11:13:51.233,17 Feb 2000 11:25:07.779,676.546
323,17 Feb 2000 13:03:00.355,17 Feb 2000 13:15:45.569,765.214
324,17 Feb 2000 14:51:38.944,17 Feb 2000 15:04:21.925,762.980
325,17 Feb 2000 16:42:39.206,17 Feb 2000 16:47:35.167,295.961
326,18 Feb 2000 04:35:01.083,18 Feb 2000 04:40:35.386,334.303
327,18 Feb 2000 06:18:34.428,18 Feb 2000 06:31:21.002,766.574
328,18 Feb 2000 08:07:16.354,18 Feb 2000 08:19:59.092,762.737
329,18 Feb 2000 09:57:55.240,18 Feb 2000 10:09:10.392,675.153
330,18 Feb 2000 11:47:52.741,18 Feb 2000 11:59:43.449,710.708
331,18 Feb 2000 13:36:37.091,18 Feb 2000 13:49:46.626,789.534
332,18 Feb 2000 15:25:37.166,18 Feb 2000 15:36:43.014,665.848
333,19 Feb 2000 05:05:19.560,19 Feb 2000 05:15:52.558,632.998
334,19 Feb 2000 06:51:50.878,19 Feb 2000 07:05:01.355,790.477
335,19 Feb 2000 08:41:43.063,19 Feb 2000 08:53:42.715,719.653
336,19 Feb 2000 10:32:20.314,19 Feb 2000 10:43:32.008,671.694
337,19 Feb 2000 12:21:38.703,19 Feb 2000 12:34:13.313,754.610
338,19 Feb 2000 14:10:15.856,19 Feb 2000 14:23:11.772,775.917
339,19 Feb 2000 16:00:28.103,19 Feb 2000 16:07:35.317,427.214
340,20 Feb 2000 03:55:58.177,20 Feb 2000 03:57:29.495,91.318
341,20 Feb 2000 05:37:27.094,20 Feb 2000 05:49:57.044,749.951
342,20 Feb 2000 07:25:45.449,20 Feb 2000 07:38:37.799,772.351
343,20 Feb 2000 09:16:18.877,20 Feb 2000 09:27:40.562,681.684
344,20 Feb 2000 11:06:26.904,20 Feb 2000 11:18:06.459,699.555
345,20 Feb 2000 12:55:16.337,20 Feb 2000 13:08:22.225,785.888
346,20 Feb 2000 14:44:07.574,20 Feb 2000 14:55:48.958,701.385
347,21 Feb 2000 04:24:36.718,21 Feb 2000 04:34:16.404,579.686
348,21 Feb 2000 06:10:31.240,21 Feb 2000 06:23:40.238,788.998
349,21 Feb 2000 08:00:07.042,21 Feb 2000 08:12:18.822,731.780
350,21 Feb 2000 09:50:47.976,21 Feb 2000 10:01:57.229,669.252
351,21 Feb 2000 11:40:16.438,21 Feb 2000 11:52:39.498,743.060
352,21 Feb 2000 13:28:53.663,21 Feb 2000 13:41:58.154,784.490
353,21 Feb 2000 15:18:36.653,21 Feb 2000 15:27:13.026,516.373
354,22 Feb 2000 04:56:23.799,22 Feb 2000 05:08:31.634,727.834
355,22 Feb 2000 06:44:16.547,22 Feb 2000 06:57:16.841,780.294
356,22 Feb 2000 08:34:41.991,22 Feb 2000 08:46:12.162,690.172
357,22 Feb 2000 10:24:59.789,22 Feb 2000 10:36:29.364,689.575
358,22 Feb 2000 12:13:55.550,22 Feb 2000 12:26:55.394,779.844
359,22 Feb 2000 14:02:40.412,22 Feb 2000 14:14:49.847,729.435
360,23 Feb 2000 03:44:02.697,23 Feb 2000 03:52:34.116,511.419
361,23 Feb 2000 05:29:14.604,23 Feb 2000 05:42:18.670,784.066
362,23 Feb 2000 07:18:32.022,23 Feb 2000 07:30:55.846,743.823
363,23 Feb 2000 09:09:14.307,23 Feb 2000 09:20:23.643,669.336
364,23 Feb 2000 10:58:53.401,23 Feb 2000 11:11:04.401,731.000
365,23 Feb 2000 12:47:32.126,23 Feb 2000 13:00:41.318,789.191
366,23 Feb 2000 14:36:54.855,23 Feb 2000 14:46:38.351,583.496
367,24 Feb 2000 04:15:24.996,24 Feb 2000 04:27:04.339,699.344
368,24 Feb 2000 06:02:49.869,24 Feb 2000 06:15:56.067,786.198
369,24 Feb 2000 07:53:04.890,24 Feb 2000 08:04:45.133,700.243
370,24 Feb 2000 09:43:31.297,24 Feb 2000 09:54:52.502,681.205
371,24 Feb 2000 11:32:34.575,24 Feb 2000 11:45:26.356,771.780
372,24 Feb 2000 13:21:15.109,24 Feb 2000 13:33:46.281,751.173
373,24 Feb 2000 15:13:27.781,24 Feb 2000 15:15:31.536,123.755
374,25 Feb 2000 03:03:41.422,25 Feb 2000 03:10:41.829,420.407
375,25 Feb 2000 04:48:01.201,25 Feb 2000 05:00:56.423,775.222
376,25 Feb 2000 06:36:58.296,25 Feb 2000 06:49:33.623,755.327
377,25 Feb 2000 08:27:39.454,25 Feb 2000 08:38:51.394,671.941
378,25 Feb 2000 10:17:29.447,25 Feb 2000 10:29:28.333,718.886
379,25 Feb 2000 12:06:11.036,25 Feb 2000 12:19:21.491,790.455
380,25 Feb 2000 13:55:19.010,25 Feb 2000 14:05:55.017,636.007
381,26 Feb 2000 03:34:31.290,26 Feb 2000 03:45:34.561,663.270
382,26 Feb 2000 05:21:25.626,26 Feb 2000 05:34:35.309,789.683
383,26 Feb 2000 07:11:27.913,26 Feb 2000 07:23:19.372,711.460
384,26 Feb 2000 09:02:01.375,26 Feb 2000 09:13:16.189,674.815
385,26 Feb 2000 10:51:13.253,26 Feb 2000 11:03:55.329,762.076
386,26 Feb 2000 12:39:51.231,26 Feb 2000 12:52:38.700,767.468
387,26 Feb 2000 14:30:33.412,26 Feb 2000 14:36:16.921,343.509
388,27 Feb 2000 02:23:43.843,27 Feb 2000 02:28:28.633,284.790
389,27 Feb 2000 04:06:51.280,27 Feb 2000 04:19:33.268,761.988
390,27 Feb 2000 05:55:26.148,27 Feb 2000 06:08:12.003,765.856
391,27 Feb 2000 07:46:03.620,27 Feb 2000 07:57:20.564,676.944
392,27 Feb 2000 09:36:04.422,27 Feb 2000 09:47:51.599,707.177
393,27 Feb 2000 11:24:50.199,27 Feb 2000 11:37:58.890,788.691
394,27 Feb 2000 13:13:47.265,27 Feb 2000 13:25:04.937,677.672
395,28 Feb 2000 02:53:43.565,28 Feb 2000 03:04:01.448,617.883
396,28 Feb 2000 04:40:04.035,28 Feb 2000 04:53:14.402,790.367
397,28 Feb 2000 06:29:51.389,28 Feb 2000 06:41:54.767,723.378
398,28 Feb 2000 08:20:30.011,28 Feb 2000 08:31:40.696,670.685
399,28 Feb 2000 10:09:51.427,28 Feb 2000 10:22:22.565,751.137
400,28 Feb 2000 11:58:28.450,28 Feb 2000 12:11:27.448,778.999
401,28 Feb 2000 13:48:30.376,28 Feb 2000 13:56:08.134,457.758
402,29 Feb 2000 03:25:45.144,29 Feb 2000 03:38:08.903,743.759
403,29 Feb 2000 05:13:55.833,29 Feb 2000 05:26:50.830,774.997
404,29 Feb 2000 07:04:27.066,29 Feb 2000 07:15:51.180,684.113
405,29 Feb 2000 08:54:38.201,29 Feb 2000 09:06:14.544,696.343
406,29 Feb 2000 10:43:29.458,29 Feb 2000 10:56:33.722,784.265
407,29 Feb 2000 12:32:18.493,29 Feb 2000 12:44:09.250,710.757
408,1 Mar 2000 02:13:03.169,1 Mar 2000 02:22:23.665,560.496
409,1 Mar 2000 03:58:45.299,1 Mar 2000 04:11:53.164,787.865
410,1 Mar 2000 05:48:15.645,1 Mar 2000 06:00:31.170,735.525
411,1 Mar 2000 07:38:57.250,1 Mar 2000 07:50:06.264,669.014
412,1 Mar 2000 09:28:28.939,1 Mar 2000 09:40:48.324,739.385
413,1 Mar 2000 11:17:06.478,1 Mar 2000 11:30:12.807,786.329
414,1 Mar 2000 13:06:42.497,1 Mar 2000 13:15:41.426,538.929
415,2 Mar 2000 02:44:43.180,2 Mar 2000 02:56:42.963,719.783
416,2 Mar 2000 04:32:27.590,2 Mar 2000 04:45:29.945,782.356
417,2 Mar 2000 06:22:50.077,2 Mar 2000 06:34:23.212,693.136
418,2 Mar 2000 08:13:10.672,2 Mar 2000 08:24:37.487,686.815
419,2 Mar 2000 10:02:08.627,2 Mar 2000 10:15:06.187,777.560
420,2 Mar 2000 11:50:51.957,2 Mar 2000 12:03:08.714,736.757
421,3 Mar 2000 01:32:32.505,3 Mar 2000 01:40:38.862,486.356
422,3 Mar 2000 03:17:29.636,3 Mar 2000 03:30:31.412,781.776
423,3 Mar 2000 05:06:40.993,3 Mar 2000 05:19:08.442,747.449
424,3 Mar 2000 06:57:23.198,3 Mar 2000 07:08:33.079,669.881
425,3 Mar 2000 08:47:05.636,3 Mar 2000 08:59:12.898,727.262
426,3 Mar 2000 10:35:45.099,3 Mar 2000 10:48:55.032,789.933
427,3 Mar 2000 12:25:02.805,3 Mar 2000 12:35:03.807,601.002
428,4 Mar 2000 02:03:45.872,4 Mar 2000 02:15:14.971,689.099
429,4 Mar 2000 03:51:01.645,4 Mar 2000 04:04:09.192,787.547
430,4 Mar 2000 05:41:12.981,4 Mar 2000 05:52:56.584,703.603
431,4 Mar 2000 07:31:41.740,4 Mar 2000 07:43:00.761,679.020
432,4 Mar 2000 09:20:47.562,4 Mar 2000 09:33:36.512,768.949
433,4 Mar 2000 11:09:27.134,4 Mar 2000 11:22:03.868,756.735
434,4 Mar 2000 13:00:58.232,4 Mar 2000 13:04:37.653,219.421
435,5 Mar 2000 00:52:16.684,5 Mar 2000 00:58:41.971,385.287
436,5 Mar 2000 02:36:17.274,5 Mar 2000 02:49:08.912,771.639
437,5 Mar 2000 04:25:07.724,5 Mar 2000 04:37:46.419,758.695
438,5 Mar 2000 06:15:48.017,5 Mar 2000 06:27:01.263,673.246
439,5 Mar 2000 08:05:41.365,5 Mar 2000 08:17:36.588,715.223
440,5 Mar 2000 09:54:24.107,5 Mar 2000 10:07:34.331,790.225
441,5 Mar 2000 11:43:28.374,5 Mar 2000 11:54:18.239,649.865
442,6 Mar 2000 01:22:53.897,6 Mar 2000 01:33:44.272,650.375
443,6 Mar 2000 03:09:38.195,6 Mar 2000 03:22:48.405,790.210
444,6 Mar 2000 04:59:36.108,6 Mar 2000 05:11:31.192,715.085
445,6 Mar 2000 06:50:11.372,6 Mar 2000 07:01:24.673,673.301
446,6 Mar 2000 08:39:26.100,6 Mar 2000 08:52:04.922,758.822
447,6 Mar 2000 10:28:03.628,6 Mar 2000 10:40:55.122,771.494
448,6 Mar 2000 12:18:31.082,6 Mar 2000 12:24:54.934,383.853
449,7 Mar 2000 00:12:33.276,7 Mar 2000 00:16:15.473,222.197
450,7 Mar 2000 01:55:08.482,7 Mar 2000 02:07:45.414,756.932
451,7 Mar 2000 03:43:36.113,7 Mar 2000 03:56:24.953,768.840
452,7 Mar 2000 05:34:11.931,7 Mar 2000 05:45:30.875,678.944
453,7 Mar 2000 07:24:15.986,7 Mar 2000 07:35:59.723,703.737
454,7 Mar 2000 09:13:03.322,7 Mar 2000 09:26:10.916,787.594
455,7 Mar 2000 11:01:57.639,7 Mar 2000 11:13:26.331,688.692
456,8 Mar 2000 00:42:08.254,8 Mar 2000 00:52:09.892,601.638
457,8 Mar 2000 02:28:17.461,8 Mar 2000 02:41:27.413,789.952
458,8 Mar 2000 04:17:59.789,8 Mar 2000 04:30:06.913,727.124
459,8 Mar 2000 06:08:39.570,8 Mar 2000 06:19:49.484,669.913
460,8 Mar 2000 07:58:04.087,8 Mar 2000 08:10:31.676,747.589
461,8 Mar 2000 09:46:41.114,8 Mar 2000 09:59:42.799,781.684
462,8 Mar 2000 11:36:33.995,8 Mar 2000 11:44:39.338,485.343
463,9 Mar 2000 01:14:03.586,9 Mar 2000 01:26:20.608,737.022
464,9 Mar 2000 03:02:06.412,9 Mar 2000 03:15:03.883,777.471
465,9 Mar 2000 04:52:35.211,9 Mar 2000 05:04:01.932,686.721
466,9 Mar 2000 06:42:49.374,9 Mar 2000 06:54:22.629,693.255
467,9 Mar 2000 08:31:42.565,9 Mar 2000 08:44:44.995,782.430
468,9 Mar 2000 10:20:29.622,9 Mar 2000 10:32:29.080,719.458
469,10 Mar 2000 00:01:30.530,10 Mar 2000 00:10:30.270,539.740
470,10 Mar 2000 01:46:59.645,10 Mar 2000 02:00:06.037,786.392
471,10 Mar 2000 03:36:24.350,10 Mar 2000 03:48:43.598,739.248
472,10 Mar 2000 05:27:06.397,10 Mar 2000 05:38:15.418,669.021
473,10 Mar 2000 07:16:41.361,10 Mar 2000 07:28:57.036,735.675
474,10 Mar 2000 09:05:19.350,10 Mar 2000 09:18:27.166,787.816
475,10 Mar 2000 10:54:49.088,10 Mar 2000 11:04:08.808,559.720
476,11 Mar 2000 00:33:02.997,11 Mar 2000 00:44:54.092,711.095
477,11 Mar 2000 02:20:38.856,11 Mar 2000 02:33:43.057,784.202
478,11 Mar 2000 04:10:58.152,11 Mar 2000 04:22:34.386,696.233
479,11 Mar 2000 06:01:21.417,11 Mar 2000 06:12:45.639,684.221
480,11 Mar 2000 07:50:21.679,11 Mar 2000 08:03:16.778,775.099
481,11 Mar 2000 09:39:03.660,11 Mar 2000 09:51:27.167,743.507
482,11 Mar 2000 23:21:03.664,11 Mar 2000 23:28:42.504,458.841
483,12 Mar 2000 01:05:44.970,12 Mar 2000 01:18:44.080,779.110
484,12 Mar 2000 02:54:50.092,12 Mar 2000 03:07:21.102,751.010
485,12 Mar 2000 04:45:31.977,12 Mar 2000 04:56:42.643,670.666
486,12 Mar 2000 06:35:17.777,12 Mar 2000 06:47:21.306,723.529
487,12 Mar 2000 08:23:58.109,12 Mar 2000 08:37:08.463,790.354
488,12 Mar 2000 10:13:11.242,12 Mar 2000 10:23:28.513,617.272
489,12 Mar 2000 23:52:07.249,13 Mar 2000 00:03:25.345,678.096
490,13 Mar 2000 01:39:13.651,13 Mar 2000 01:52:22.307,788.656
491,13 Mar 2000 03:29:21.090,13 Mar 2000 03:41:08.150,707.060
492,13 Mar 2000 05:19:52.042,13 Mar 2000 05:31:09.076,677.034
493,13 Mar 2000 07:09:00.507,13 Mar 2000 07:21:46.486,765.979
494,13 Mar 2000 08:57:39.281,13 Mar 2000 09:10:21.080,761.800
495,13 Mar 2000 10:48:44.763,13 Mar 2000 10:53:27.400,282.637
496,13 Mar 2000 22:40:54.593,13 Mar 2000 22:46:39.721,345.127
497,14 Mar 2000 00:24:33.681,14 Mar 2000 00:37:21.303,767.622
498,14 Mar 2000 02:13:17.306,14 Mar 2000 02:25:59.267,761.961
499,14 Mar 2000 04:03:56.492,14 Mar 2000 04:15:11.263,674.772
500,14 Mar 2000 05:53:53.177,14 Mar 2000 06:05:44.788,711.611
501,14 Mar 2000 07:42:37.198,14 Mar 2000 07:55:46.908,789.710
502,14 Mar 2000 09:31:38.079,14 Mar 2000 09:42:40.859,662.780
503,14 Mar 2000 23:11:17.096,14 Mar 2000 23:21:53.635,636.540
504,15 Mar 2000 00:57:51.023,15 Mar 2000 01:11:01.476,790.453
505,15 Mar 2000 02:47:44.355,15 Mar 2000 02:59:43.114,718.759
506,15 Mar 2000 04:38:21.233,15 Mar 2000 04:49:33.239,672.006
507,15 Mar 2000 06:27:38.891,15 Mar 2000 06:40:14.359,755.467
508,15 Mar 2000 08:16:16.106,15 Mar 2000 08:29:11.198,775.093
509,15 Mar 2000 10:06:31.161,15 Mar 2000 10:13:30.264,419.103
510,15 Mar 2000 22:01:38.317,15 Mar 2000 22:03:46.970,128.653
511,15 Mar 2000 23:43:26.050,15 Mar 2000 23:55:57.437,751.387
512,16 Mar 2000 01:31:46.258,16 Mar 2000 01:44:37.940,771.683
513,16 Mar 2000 03:22:20.182,16 Mar 2000 03:33:41.320,681.139
514,16 Mar 2000 05:12:27.429,16 Mar 2000 05:24:07.818,700.389
515,16 Mar 2000 07:01:16.436,16 Mar 2000 07:14:22.699,786.263
516,16 Mar 2000 08:50:08.266,16 Mar 2000 09:01:47.218,698.952
517,16 Mar 2000 22:30:33.678,16 Mar 2000 22:40:17.844,584.166
518,17 Mar 2000 00:16:31.161,17 Mar 2000 00:29:40.390,789.229
519,17 Mar 2000 02:06:08.271,17 Mar 2000 02:18:19.144,730.873
520,17 Mar 2000 03:56:48.998,17 Mar 2000 04:07:58.375,669.378
521,17 Mar 2000 05:46:16.676,17 Mar 2000 05:58:40.652,743.977
522,17 Mar 2000 07:34:53.851,17 Mar 2000 07:47:57.833,783.982
523,17 Mar 2000 09:24:38.709,17 Mar 2000 09:33:09.173,510.465
524,17 Mar 2000 23:02:22.433,17 Mar 2000 23:14:32.147,729.714
525,18 Mar 2000 00:50:17.194,18 Mar 2000 01:03:16.959,779.765
526,18 Mar 2000 02:40:43.323,18 Mar 2000 02:52:12.813,689.490
527,18 Mar 2000 04:31:00.413,18 Mar 2000 04:42:30.720,690.306
528,18 Mar 2000 06:19:55.659,18 Mar 2000 06:32:56.045,780.386
529,18 Mar 2000 08:08:40.941,18 Mar 2000 08:20:48.464,727.523
530,18 Mar 2000 21:49:58.888,18 Mar 2000 21:58:36.122,517.234
531,18 Mar 2000 23:35:14.292,18 Mar 2000 23:48:18.857,784.564
532,19 Mar 2000 01:24:33.164,19 Mar 2000 01:36:56.101,742.937
533,19 Mar 2000 03:15:15.424,19 Mar 2000 03:26:24.692,669.268
534,19 Mar 2000 05:04:53.699,19 Mar 2000 05:17:05.641,731.941
535,19 Mar 2000 06:53:32.273,19 Mar 2000 07:06:41.228,788.955
536,19 Mar 2000 08:42:56.336,19 Mar 2000 08:52:35.278,578.941
537,19 Mar 2000 22:21:23.268,19 Mar 2000 22:33:05.010,701.742
538,20 Mar 2000 00:08:50.339,20 Mar 2000 00:21:56.174,785.835
539,20 Mar 2000 01:59:06.226,20 Mar 2000 02:10:45.681,699.456
540,20 Mar 2000 03:49:32.026,20 Mar 2000 04:00:53.830,681.804
541,20 Mar 2000 05:38:34.700,20 Mar 2000 05:51:27.166,772.466
542,20 Mar 2000 07:27:15.510,20 Mar 2000 07:39:45.220,749.711
543,20 Mar 2000 09:19:46.671,20 Mar 2000 09:21:10.274,83.603
544,20 Mar 2000 21:09:36.418,20 Mar 2000 21:16:44.811,428.393
545,20 Mar 2000 22:54:00.630,20 Mar 2000 23:06:56.666,776.036
546,21 Mar 2000 00:42:59.328,21 Mar 2000 00:55:33.823,754.495
547,21 Mar 2000 02:33:40.653,21 Mar 2000 02:44:52.337,671.684
548,21 Mar 2000 04:23:29.818,21 Mar 2000 04:35:29.637,719.819
549,21 Mar 2000 06:12:11.147,21 Mar 2000 06:25:21.624,790.476
550,21 Mar 2000 08:01:20.113,21 Mar 2000 08:11:52.521,632.408
551,21 Mar 2000 21:40:29.148,21 Mar 2000 21:51:35.442,666.294
552,21 Mar 2000 23:27:25.902,21 Mar 2000 23:40:35.417,789.515
553,22 Mar 2000 01:17:29.227,22 Mar 2000 01:29:19.825,710.597
554,22 Mar 2000 03:08:02.210,22 Mar 2000 03:19:17.462,675.252
555,22 Mar 2000 04:57:13.407,22 Mar 2000 05:09:56.281,762.874
556,22 Mar 2000 06:45:51.533,22 Mar 2000 06:58:37.929,766.396
557,22 Mar 2000 08:36:37.844,22 Mar 2000 08:42:10.326,332.482
558,22 Mar 2000 20:29:36.186,22 Mar 2000 20:34:34.049,297.863
559,22 Mar 2000 22:12:50.428,22 Mar 2000 22:25:33.583,763.155
560,23 Mar 2000 00:01:27.050,23 Mar 2000 00:14:12.160,765.110
561,23 Mar 2000 01:52:04.884,23 Mar 2000 02:03:21.394,676.511
562,23 Mar 2000 03:42:04.877,23 Mar 2000 03:53:52.941,708.065
563,23 Mar 2000 05:30:50.304,23 Mar 2000 05:43:59.225,788.922
564,23 Mar 2000 07:19:48.098,23 Mar 2000 07:31:02.910,674.812
565,23 Mar 2000 20:59:40.928,23 Mar 2000 21:10:02.615,621.687
566,23 Mar 2000 22:46:04.102,23 Mar 2000 22:59:14.524,790.422
567,24 Mar 2000 00:35:52.659,24 Mar 2000 00:47:55.134,722.475
568,24 Mar 2000 02:26:30.954,24 Mar 2000 02:37:41.896,670.942
569,24 Mar 2000 04:15:51.622,24 Mar 2000 04:28:23.639,752.017
570,24 Mar 2000 06:04:28.671,24 Mar 2000 06:17:26.946,778.275
571,24 Mar 2000 07:54:33.046,24 Mar 2000 08:02:03.513,450.467
572,24 Mar 2000 21:31:43.995,24 Mar 2000 21:44:09.320,745.325
573,24 Mar 2000 23:19:56.587,24 Mar 2000 23:32:50.955,774.369
574,25 Mar 2000 01:10:28.375,25 Mar 2000 01:21:51.899,683.524
575,25 Mar 2000 03:00:38.749,25 Mar 2000 03:12:15.898,697.149
576,25 Mar 2000 04:49:29.554,25 Mar 2000 05:02:34.246,784.693
577,25 Mar 2000 06:38:19.125,25 Mar 2000 06:50:07.615,708.490
578,25 Mar 2000 20:18:59.909,25 Mar 2000 20:28:25.249,565.340
579,25 Mar 2000 22:04:45.145,25 Mar 2000 22:17:53.314,788.169
580,25 Mar 2000 23:54:16.842,26 Mar 2000 00:06:31.462,734.620
581,26 Mar 2000 01:44:58.296,26 Mar 2000 01:56:07.375,669.080
582,26 Mar 2000 03:34:29.188,26 Mar 2000 03:46:49.502,740.314
583,26 Mar 2000 05:23:06.647,26 Mar 2000 05:36:12.553,785.907
584,26 Mar 2000 07:12:44.337,26 Mar 2000 07:21:37.836,533.498
585,26 Mar 2000 20:50:41.697,26 Mar 2000 21:02:43.514,721.817
586,26 Mar 2000 22:38:28.182,26 Mar 2000 22:51:30.051,781.869
587,27 Mar 2000 00:28:51.406,27 Mar 2000 00:40:23.823,692.417
588,27 Mar 2000 02:19:11.321,27 Mar 2000 02:30:38.829,687.508
589,27 Mar 2000 04:08:08.732,27 Mar 2000 04:21:06.882,778.150
590,27 Mar 2000 05:56:52.435,27 Mar 2000 06:09:07.425,734.990
591,27 Mar 2000 19:38:28.380,27 Mar 2000 19:46:41.097,492.717
592,27 Mar 2000 21:23:29.236,27 Mar 2000 21:36:31.607,782.371
593,27 Mar 2000 23:12:42.097,27 Mar 2000 23:25:08.671,746.574
594,28 Mar 2000 01:03:24.335,28 Mar 2000 01:14:34.088,669.753
595,28 Mar 2000 02:53:05.949,28 Mar 2000 03:05:14.151,728.202
596,28 Mar 2000 04:41:45.227,28 Mar 2000 04:54:55.004,789.777
597,28 Mar 2000 06:31:04.147,28 Mar 2000 06:41:00.918,596.771
598,28 Mar 2000 20:09:44.014,28 Mar 2000 20:21:15.696,691.682
599,28 Mar 2000 21:57:02.045,28 Mar 2000 22:10:09.290,787.245
600,28 Mar 2000 23:47:14.307,28 Mar 2000 23:58:57.094,702.787
601,29 Mar 2000 01:37:42.496,29 Mar 2000 01:49:02.065,679.569
602,29 Mar 2000 03:26:47.688,29 Mar 2000 03:39:37.361,769.673
603,29 Mar 2000 05:15:27.493,29 Mar 2000 05:28:02.892,755.398
604,29 Mar 2000 07:07:06.664,29 Mar 2000 07:10:26.889,200.224
605,29 Mar 2000 18:58:11.115,29 Mar 2000 19:04:45.435,394.320
606,29 Mar 2000 20:42:16.612,29 Mar 2000 20:55:09.169,772.557
607,29 Mar 2000 22:31:08.712,29 Mar 2000 22:43:46.596,757.884
608,30 Mar 2000 00:21:49.233,30 Mar 2000 00:33:02.162,672.930
609,30 Mar 2000 02:11:41.755,30 Mar 2000 02:23:37.899,716.144
610,30 Mar 2000 04:00:24.214,30 Mar 2000 04:13:34.521,790.307
611,30 Mar 2000 05:49:29.376,30 Mar 2000 06:00:15.887,646.511
612,30 Mar 2000 19:28:51.602,30 Mar 2000 19:39:45.227,653.625
613,30 Mar 2000 21:15:38.406,30 Mar 2000 21:28:48.509,790.103
614,30 Mar 2000 23:05:37.405,30 Mar 2000 23:17:31.609,714.204
615,31 Mar 2000 00:56:12.236,31 Mar 2000 01:07:25.918,673.681
616,31 Mar 2000 02:45:26.259,31 Mar 2000 02:58:05.907,759.648
617,31 Mar 2000 04:34:03.896,31 Mar 2000 04:46:54.429,770.533
618,31 Mar 2000 06:24:34.768,31 Mar 2000 06:30:49.130,374.363
619,31 Mar 2000 18:18:23.562,31 Mar 2000 18:22:22.865,239.303
620,31 Mar 2000 20:01:07.537,31 Mar 2000 20:13:45.755,758.218
621,31 Mar 2000 21:49:36.966,31 Mar 2000 22:02:25.090,768.125
622,31 Mar 2000 23:40:13.206,31 Mar 2000 23:51:31.663,678.457
623,1 Apr 2000 01:30:16.463,1 Apr 2000 01:42:01.063,704.600
624,1 Apr 2000 03:19:03.408,1 Apr 2000 03:32:11.303,787.895
625,1 Apr 2000 05:07:58.396,1 Apr 2000 05:19:24.421,686.025

Statistics
"Min Duration",170,26 Jan 2000 09:50:42.600,26 Jan 2000 09:50:47.433,4.833
"Max Duration",334,19 Feb 2000 06:51:50.878,19 Feb 2000 07:05:01.355,790.477
"Mean Duration",,,,685.070
"Total Duration",,,,428168.606


