Satellite-POLMEO11-To-Place-POL_Mid_AER.csv

"Time (UTCG)","Azimuth (deg)","Elevation (deg)","Range (km)"
1 Jan 2000 12:14:06.522,323.511,-70.062,16164.451696
1 Jan 2000 12:15:06.000,323.269,-70.122,16072.963732
1 Jan 2000 12:16:06.000,323.011,-70.189,15981.165743
1 Jan 2000 12:17:06.000,322.740,-70.260,15889.899468
1 Jan 2000 12:18:06.000,322.455,-70.338,15799.202555
1 Jan 2000 12:19:06.000,322.156,-70.420,15709.113112
1 Jan 2000 12:20:06.000,321.843,-70.508,15619.669706
1 Jan 2000 12:21:06.000,321.515,-70.602,15530.911344
1 Jan 2000 12:22:06.000,321.170,-70.701,15442.877466
1 Jan 2000 12:23:06.000,320.810,-70.806,15355.607929
1 Jan 2000 12:24:06.000,320.433,-70.916,15269.142993
1 Jan 2000 12:25:06.000,320.038,-71.031,15183.523301
1 Jan 2000 12:26:06.000,319.625,-71.152,15098.789860
1 Jan 2000 12:27:06.000,319.193,-71.278,15014.984022
1 Jan 2000 12:28:06.000,318.742,-71.410,14932.147460
1 Jan 2000 12:29:06.000,318.270,-71.547,14850.322141
1 Jan 2000 12:30:06.000,317.777,-71.689,14769.550299
1 Jan 2000 12:31:06.000,317.262,-71.835,14689.874408
1 Jan 2000 12:32:06.000,316.724,-71.987,14611.337143
1 Jan 2000 12:33:06.000,316.162,-72.144,14533.981355
1 Jan 2000 12:34:06.000,315.575,-72.305,14457.850027
1 Jan 2000 12:35:06.000,314.962,-72.470,14382.986236
1 Jan 2000 12:36:06.000,314.321,-72.640,14309.433113
1 Jan 2000 12:37:06.000,313.652,-72.814,14237.233797
1 Jan 2000 12:38:06.000,312.954,-72.992,14166.431386
1 Jan 2000 12:39:06.000,312.224,-73.174,14097.068894
1 Jan 2000 12:40:06.000,311.462,-73.358,14029.189191
1 Jan 2000 12:41:06.000,310.667,-73.546,13962.834953
1 Jan 2000 12:42:06.000,309.837,-73.737,13898.048604
1 Jan 2000 12:43:06.000,308.970,-73.930,13834.872247
1 Jan 2000 12:44:06.000,308.065,-74.125,13773.347642
1 Jan 2000 12:45:06.000,307.120,-74.322,13713.516083
1 Jan 2000 12:46:06.000,306.134,-74.520,13655.418370
1 Jan 2000 12:47:06.000,305.106,-74.719,13599.094732
1 Jan 2000 12:48:06.000,304.033,-74.918,13544.584760
1 Jan 2000 12:49:06.000,302.913,-75.117,13491.927334
1 Jan 2000 12:50:06.000,301.747,-75.315,13441.160552
1 Jan 2000 12:51:06.000,300.531,-75.512,13392.321655
1 Jan 2000 12:52:06.000,299.265,-75.707,13345.446956
1 Jan 2000 12:53:06.000,297.947,-75.900,13300.571764
1 Jan 2000 12:54:06.000,296.575,-76.089,13257.730310
1 Jan 2000 12:55:06.000,295.150,-76.274,13216.955671
1 Jan 2000 12:56:06.000,293.670,-76.455,13178.279699
1 Jan 2000 12:57:06.000,292.134,-76.630,13141.732949
1 Jan 2000 12:58:06.000,290.542,-76.799,13107.344604
1 Jan 2000 12:59:06.000,288.895,-76.962,13075.142398
1 Jan 2000 13:00:06.000,287.192,-77.117,13045.152585
1 Jan 2000 13:01:06.000,285.435,-77.263,13017.399818
1 Jan 2000 13:02:06.000,283.626,-77.400,12991.907124
1 Jan 2000 13:03:06.000,281.765,-77.528,12968.695834
1 Jan 2000 13:04:06.000,279.856,-77.644,12947.785528
1 Jan 2000 13:05:06.000,277.901,-77.750,12929.193985
1 Jan 2000 13:06:06.000,275.905,-77.843,12912.937131
1 Jan 2000 13:07:06.000,273.871,-77.924,12899.028999
1 Jan 2000 13:08:06.000,271.805,-77.992,12887.481690
1 Jan 2000 13:09:06.000,269.711,-78.047,12878.305341
1 Jan 2000 13:10:06.000,267.595,-78.088,12871.508094
1 Jan 2000 13:11:06.000,265.463,-78.114,12867.096077
1 Jan 2000 13:12:06.000,263.322,-78.126,12865.073379
1 Jan 2000 13:13:06.000,261.178,-78.124,12865.442065
1 Jan 2000 13:14:06.000,259.037,-78.107,12868.202136
1 Jan 2000 13:15:06.000,256.906,-78.077,12873.351548
1 Jan 2000 13:16:06.000,254.792,-78.032,12880.886220
1 Jan 2000 13:17:06.000,252.699,-77.973,12890.800045
1 Jan 2000 13:18:06.000,250.634,-77.901,12903.084905
1 Jan 2000 13:19:06.000,248.602,-77.816,12917.730701
1 Jan 2000 13:20:06.000,246.608,-77.718,12934.725375
1 Jan 2000 13:21:06.000,244.654,-77.609,12954.054955
1 Jan 2000 13:22:06.000,242.746,-77.489,12975.703586
1 Jan 2000 13:23:06.000,240.886,-77.358,12999.653580
1 Jan 2000 13:24:06.000,239.076,-77.218,13025.885462
1 Jan 2000 13:25:06.000,237.317,-77.069,13054.378025
1 Jan 2000 13:26:06.000,235.612,-76.911,13085.108394
1 Jan 2000 13:27:06.000,233.961,-76.746,13118.052072
1 Jan 2000 13:28:06.000,232.365,-76.575,13153.183015
1 Jan 2000 13:29:06.000,230.822,-76.397,13190.473695
1 Jan 2000 13:30:06.000,229.334,-76.215,13229.895170
1 Jan 2000 13:31:06.000,227.899,-76.028,13271.417153
1 Jan 2000 13:32:06.000,226.516,-75.837,13315.008085
1 Jan 2000 13:33:06.000,225.185,-75.643,13360.635209
1 Jan 2000 13:34:06.000,223.903,-75.447,13408.264644
1 Jan 2000 13:35:06.000,222.671,-75.249,13457.861460
1 Jan 2000 13:36:06.000,221.485,-75.050,13509.389750
1 Jan 2000 13:37:06.000,220.345,-74.851,13562.812710
1 Jan 2000 13:38:06.000,219.250,-74.651,13618.092706
1 Jan 2000 13:39:06.000,218.196,-74.452,13675.191355
1 Jan 2000 13:40:06.000,217.184,-74.254,13734.069591
1 Jan 2000 13:41:06.000,216.210,-74.057,13794.687737
1 Jan 2000 13:42:06.000,215.275,-73.862,13857.005577
1 Jan 2000 13:43:06.000,214.375,-73.669,13920.982420
1 Jan 2000 13:44:06.000,213.510,-73.478,13986.577169
1 Jan 2000 13:45:06.000,212.678,-73.291,14053.748381
1 Jan 2000 13:46:06.000,211.877,-73.106,14122.454331
1 Jan 2000 13:47:06.000,211.107,-72.925,14192.653070
1 Jan 2000 13:48:06.000,210.366,-72.748,14264.302480
1 Jan 2000 13:49:06.000,209.652,-72.575,14337.360332
1 Jan 2000 13:50:06.000,208.965,-72.406,14411.784333
1 Jan 2000 13:51:06.000,208.302,-72.241,14487.532180
1 Jan 2000 13:52:06.000,207.664,-72.081,14564.561602
1 Jan 2000 13:53:06.000,207.049,-71.925,14642.830406
1 Jan 2000 13:54:06.000,206.455,-71.775,14722.296519
1 Jan 2000 13:55:06.000,205.883,-71.629,14802.918025
1 Jan 2000 13:56:06.000,205.330,-71.488,14884.653204
1 Jan 2000 13:57:06.000,204.797,-71.353,14967.460563
1 Jan 2000 13:58:06.000,204.282,-71.223,15051.298870
1 Jan 2000 13:59:06.000,203.784,-71.098,15136.127183
1 Jan 2000 14:00:06.000,203.303,-70.979,15221.904874
1 Jan 2000 14:01:06.000,202.838,-70.865,15308.591658
1 Jan 2000 14:02:06.000,202.389,-70.756,15396.147613
1 Jan 2000 14:03:06.000,201.954,-70.654,15484.533204
1 Jan 2000 14:04:06.000,201.532,-70.556,15573.709295
1 Jan 2000 14:05:06.000,201.124,-70.464,15663.637175
1 Jan 2000 14:06:06.000,200.729,-70.378,15754.278564
1 Jan 2000 14:07:06.000,200.347,-70.297,15845.595636
1 Jan 2000 14:08:06.000,199.976,-70.222,15937.551025
1 Jan 2000 14:09:06.000,199.616,-70.153,16030.107829
1 Jan 2000 14:10:06.000,199.267,-70.089,16123.229635
1 Jan 2000 14:10:48.559,199.025,-70.047,16189.605838

Interval Statistics
"Min Elevation",1 Jan 2000 13:12:26.752,262.580,-78.127,12864.930335
"Max Elevation",1 Jan 2000 14:10:48.559,199.025,-70.047,16189.605838
"Mean Elevation",,,-74.045,
"Min Range",1 Jan 2000 13:12:26.750,262.580,-78.127,12864.930335
"Max Range",1 Jan 2000 14:10:48.559,199.025,-70.047,16189.605838
"Mean Range",,,,14082.839708

"Time (UTCG)","Azimuth (deg)","Elevation (deg)","Range (km)"
1 Jan 2000 18:58:45.827,30.225,-70.065,16159.774039
1 Jan 2000 18:59:45.000,30.582,-70.109,16092.449668
1 Jan 2000 19:00:45.000,30.951,-70.157,16024.769130
1 Jan 2000 19:01:45.000,31.329,-70.207,15957.693256
1 Jan 2000 19:02:45.000,31.715,-70.259,15891.238187
1 Jan 2000 19:03:45.000,32.110,-70.315,15825.420001
1 Jan 2000 19:04:45.000,32.514,-70.373,15760.254697
1 Jan 2000 19:05:45.000,32.927,-70.433,15695.758196
1 Jan 2000 19:06:45.000,33.349,-70.496,15631.946327
1 Jan 2000 19:07:45.000,33.780,-70.561,15568.834824
1 Jan 2000 19:08:45.000,34.221,-70.629,15506.439312
1 Jan 2000 19:09:45.000,34.672,-70.699,15444.775305
1 Jan 2000 19:10:45.000,35.133,-70.771,15383.858191
1 Jan 2000 19:11:45.000,35.604,-70.846,15323.703227
1 Jan 2000 19:12:45.000,36.085,-70.922,15264.325530
1 Jan 2000 19:13:45.000,36.578,-71.001,15205.740066
1 Jan 2000 19:14:45.000,37.081,-71.081,15147.961641
1 Jan 2000 19:15:45.000,37.596,-71.164,15091.004893
1 Jan 2000 19:16:45.000,38.122,-71.248,15034.884278
1 Jan 2000 19:17:45.000,38.659,-71.334,14979.614067
1 Jan 2000 19:18:45.000,39.209,-71.421,14925.208330
1 Jan 2000 19:19:45.000,39.770,-71.510,14871.680929
1 Jan 2000 19:20:45.000,40.344,-71.601,14819.045505
1 Jan 2000 19:21:45.000,40.930,-71.693,14767.315473
1 Jan 2000 19:22:45.000,41.529,-71.785,14716.504005
1 Jan 2000 19:23:45.000,42.142,-71.880,14666.624024
1 Jan 2000 19:24:45.000,42.767,-71.975,14617.688194
1 Jan 2000 19:25:45.000,43.406,-72.070,14569.708905
1 Jan 2000 19:26:45.000,44.058,-72.167,14522.698269
1 Jan 2000 19:27:45.000,44.724,-72.264,14476.668103
1 Jan 2000 19:28:45.000,45.405,-72.362,14431.629924
1 Jan 2000 19:29:45.000,46.099,-72.460,14387.594937
1 Jan 2000 19:30:45.000,46.808,-72.558,14344.574022
1 Jan 2000 19:31:45.000,47.531,-72.657,14302.577730
1 Jan 2000 19:32:45.000,48.268,-72.755,14261.616266
1 Jan 2000 19:33:45.000,49.021,-72.853,14221.699486
1 Jan 2000 19:34:45.000,49.788,-72.950,14182.836895
1 Jan 2000 19:35:45.000,50.570,-73.047,14145.037590
1 Jan 2000 19:36:45.000,51.367,-73.144,14108.310327
1 Jan 2000 19:37:45.000,52.179,-73.239,14072.663459
1 Jan 2000 19:38:45.000,53.006,-73.334,14038.104944
1 Jan 2000 19:39:45.000,53.848,-73.427,14004.642332
1 Jan 2000 19:40:45.000,54.705,-73.519,13972.282763
1 Jan 2000 19:41:45.000,55.577,-73.610,13941.032956
1 Jan 2000 19:42:45.000,56.464,-73.699,13910.899202
1 Jan 2000 19:43:45.000,57.365,-73.786,13881.887358
1 Jan 2000 19:44:45.000,58.280,-73.871,13854.002843
1 Jan 2000 19:45:45.000,59.209,-73.954,13827.250629
1 Jan 2000 19:46:45.000,60.153,-74.035,13801.635237
1 Jan 2000 19:47:45.000,61.110,-74.113,13777.160734
1 Jan 2000 19:48:45.000,62.080,-74.189,13753.830728
1 Jan 2000 19:49:45.000,63.063,-74.262,13731.648363
1 Jan 2000 19:50:45.000,64.059,-74.332,13710.616316
1 Jan 2000 19:51:45.000,65.066,-74.399,13690.736800
1 Jan 2000 19:52:45.000,66.085,-74.463,13672.011553
1 Jan 2000 19:53:45.000,67.114,-74.524,13654.441845
1 Jan 2000 19:54:45.000,68.154,-74.581,13638.028474
1 Jan 2000 19:55:45.000,69.204,-74.635,13622.771764
1 Jan 2000 19:56:45.000,70.262,-74.685,13608.671570
1 Jan 2000 19:57:45.000,71.329,-74.731,13595.727276
1 Jan 2000 19:58:45.000,72.403,-74.774,13583.937796
1 Jan 2000 19:59:45.000,73.483,-74.812,13573.301583
1 Jan 2000 20:00:45.000,74.570,-74.847,13563.816623
1 Jan 2000 20:01:45.000,75.661,-74.878,13555.480454
1 Jan 2000 20:02:45.000,76.757,-74.904,13548.290133
1 Jan 2000 20:03:45.000,77.856,-74.927,13542.242292
1 Jan 2000 20:04:45.000,78.957,-74.945,13537.333112
1 Jan 2000 20:05:45.000,80.059,-74.959,13533.558336
1 Jan 2000 20:06:45.000,81.162,-74.969,13530.913273
1 Jan 2000 20:07:45.000,82.264,-74.975,13529.392811
1 Jan 2000 20:08:45.000,83.365,-74.976,13528.991418
1 Jan 2000 20:09:45.000,84.464,-74.974,13529.703155
1 Jan 2000 20:10:45.000,85.559,-74.967,13531.521684
1 Jan 2000 20:11:45.000,86.650,-74.956,13534.440274
1 Jan 2000 20:12:45.000,87.737,-74.941,13538.451814
1 Jan 2000 20:13:45.000,88.817,-74.922,13543.548820
1 Jan 2000 20:14:45.000,89.891,-74.899,13549.723449
1 Jan 2000 20:15:45.000,90.957,-74.872,13556.967506
1 Jan 2000 20:16:45.000,92.015,-74.842,13565.272457
1 Jan 2000 20:17:45.000,93.064,-74.808,13574.629439
1 Jan 2000 20:18:45.000,94.103,-74.770,13585.029273
1 Jan 2000 20:19:45.000,95.133,-74.728,13596.462475
1 Jan 2000 20:20:45.000,96.151,-74.684,13608.919266
1 Jan 2000 20:21:45.000,97.157,-74.636,13622.389589
1 Jan 2000 20:22:45.000,98.152,-74.585,13636.863116
1 Jan 2000 20:23:45.000,99.134,-74.531,13652.329265
1 Jan 2000 20:24:45.000,100.104,-74.474,13668.777208
1 Jan 2000 20:25:45.000,101.060,-74.414,13686.195888
1 Jan 2000 20:26:45.000,102.002,-74.352,13704.574028
1 Jan 2000 20:27:45.000,102.930,-74.287,13723.900145
1 Jan 2000 20:28:45.000,103.844,-74.220,13744.162564
1 Jan 2000 20:29:45.000,104.744,-74.151,13765.349430
1 Jan 2000 20:30:45.000,105.629,-74.080,13787.448718
1 Jan 2000 20:31:45.000,106.499,-74.007,13810.448245
1 Jan 2000 20:32:45.000,107.354,-73.932,13834.335689
1 Jan 2000 20:33:45.000,108.195,-73.855,13859.098597
1 Jan 2000 20:34:45.000,109.020,-73.777,13884.724392
1 Jan 2000 20:35:45.000,109.830,-73.698,13911.200393
1 Jan 2000 20:36:45.000,110.624,-73.617,13938.513824
1 Jan 2000 20:37:45.000,111.404,-73.535,13966.651822
1 Jan 2000 20:38:45.000,112.169,-73.453,13995.601452
1 Jan 2000 20:39:45.000,112.919,-73.369,14025.349717
1 Jan 2000 20:40:45.000,113.654,-73.285,14055.883569
1 Jan 2000 20:41:45.000,114.374,-73.200,14087.189918
1 Jan 2000 20:42:45.000,115.080,-73.115,14119.255644
1 Jan 2000 20:43:45.000,115.771,-73.029,14152.067606
1 Jan 2000 20:44:45.000,116.448,-72.943,14185.612652
1 Jan 2000 20:45:45.000,117.110,-72.857,14219.877627
1 Jan 2000 20:46:45.000,117.759,-72.771,14254.849384
1 Jan 2000 20:47:45.000,118.394,-72.685,14290.514792
1 Jan 2000 20:48:45.000,119.016,-72.599,14326.860745
1 Jan 2000 20:49:45.000,119.624,-72.514,14363.874166
1 Jan 2000 20:50:45.000,120.218,-72.429,14401.542021
1 Jan 2000 20:51:45.000,120.800,-72.344,14439.851323
1 Jan 2000 20:52:45.000,121.370,-72.260,14478.789139
1 Jan 2000 20:53:45.000,121.926,-72.176,14518.342597
1 Jan 2000 20:54:45.000,122.471,-72.093,14558.498892
1 Jan 2000 20:55:45.000,123.003,-72.011,14599.245296
1 Jan 2000 20:56:45.000,123.524,-71.930,14640.569157
1 Jan 2000 20:57:45.000,124.033,-71.849,14682.457910
1 Jan 2000 20:58:45.000,124.531,-71.770,14724.899080
1 Jan 2000 20:59:45.000,125.018,-71.692,14767.880288
1 Jan 2000 21:00:45.000,125.493,-71.614,14811.389253
1 Jan 2000 21:01:45.000,125.958,-71.538,14855.413801
1 Jan 2000 21:02:45.000,126.413,-71.463,14899.941864
1 Jan 2000 21:03:45.000,126.857,-71.389,14944.961485
1 Jan 2000 21:04:45.000,127.291,-71.317,14990.460825
1 Jan 2000 21:05:45.000,127.716,-71.246,15036.428161
1 Jan 2000 21:06:45.000,128.131,-71.176,15082.851893
1 Jan 2000 21:07:45.000,128.536,-71.107,15129.720543
1 Jan 2000 21:08:45.000,128.933,-71.040,15177.022762
1 Jan 2000 21:09:45.000,129.320,-70.975,15224.747327
1 Jan 2000 21:10:45.000,129.698,-70.911,15272.883146
1 Jan 2000 21:11:45.000,130.068,-70.849,15321.419260
1 Jan 2000 21:12:45.000,130.430,-70.788,15370.344842
1 Jan 2000 21:13:45.000,130.783,-70.728,15419.649201
1 Jan 2000 21:14:45.000,131.128,-70.671,15469.321781
1 Jan 2000 21:15:45.000,131.466,-70.615,15519.352162
1 Jan 2000 21:16:45.000,131.795,-70.560,15569.730063
1 Jan 2000 21:17:45.000,132.117,-70.508,15620.445338
1 Jan 2000 21:18:45.000,132.432,-70.457,15671.487981
1 Jan 2000 21:19:45.000,132.739,-70.407,15722.848124
1 Jan 2000 21:20:45.000,133.040,-70.360,15774.516035
1 Jan 2000 21:21:45.000,133.333,-70.314,15826.482121
1 Jan 2000 21:22:45.000,133.620,-70.270,15878.736926
1 Jan 2000 21:23:45.000,133.900,-70.227,15931.271132
1 Jan 2000 21:24:45.000,134.174,-70.187,15984.075555
1 Jan 2000 21:25:45.000,134.441,-70.148,16037.141148
1 Jan 2000 21:26:45.000,134.702,-70.111,16090.458999
1 Jan 2000 21:27:45.000,134.957,-70.075,16144.020315
1 Jan 2000 21:28:27.542,135.134,-70.051,16182.139979

Interval Statistics
"Min Elevation",1 Jan 2000 20:08:36.595,83.211,-74.976,13528.980464
"Max Elevation",1 Jan 2000 21:28:27.542,135.134,-70.051,16182.139979
"Mean Elevation",,,-72.657,
"Min Range",1 Jan 2000 20:08:36.581,83.211,-74.976,13528.980464
"Max Range",1 Jan 2000 21:28:27.542,135.134,-70.051,16182.139979
"Mean Range",,,,14482.626995

"Time (UTCG)","Azimuth (deg)","Elevation (deg)","Range (km)"
2 Jan 2000 03:04:06.923,9.505,-70.046,16189.948181
2 Jan 2000 03:05:06.000,9.412,-70.105,16099.148185
2 Jan 2000 03:06:06.000,9.317,-70.169,16007.098963
2 Jan 2000 03:07:06.000,9.223,-70.240,15915.247027
2 Jan 2000 03:08:06.000,9.129,-70.316,15823.620123
2 Jan 2000 03:09:06.000,9.035,-70.398,15732.246524
2 Jan 2000 03:10:06.000,8.941,-70.487,15641.155040
2 Jan 2000 03:11:06.000,8.847,-70.581,15550.375013
2 Jan 2000 03:12:06.000,8.753,-70.682,15459.936326
2 Jan 2000 03:13:06.000,8.659,-70.788,15369.869402
2 Jan 2000 03:14:06.000,8.565,-70.901,15280.205206
2 Jan 2000 03:15:06.000,8.470,-71.021,15190.975244
2 Jan 2000 03:16:06.000,8.375,-71.147,15102.211567
2 Jan 2000 03:17:06.000,8.280,-71.280,15013.946762
2 Jan 2000 03:18:06.000,8.183,-71.420,14926.213958
2 Jan 2000 03:19:06.000,8.086,-71.566,14839.046816
2 Jan 2000 03:20:06.000,7.988,-71.719,14752.479528
2 Jan 2000 03:21:06.000,7.889,-71.880,14666.546811
2 Jan 2000 03:22:06.000,7.789,-72.047,14581.283899
2 Jan 2000 03:23:06.000,7.688,-72.222,14496.726536
2 Jan 2000 03:24:06.000,7.585,-72.403,14412.910962
2 Jan 2000 03:25:06.000,7.481,-72.592,14329.873908
2 Jan 2000 03:26:06.000,7.374,-72.789,14247.652577
2 Jan 2000 03:27:06.000,7.266,-72.993,14166.284632
2 Jan 2000 03:28:06.000,7.156,-73.204,14085.808178
2 Jan 2000 03:29:06.000,7.043,-73.423,14006.261745
2 Jan 2000 03:30:06.000,6.928,-73.649,13927.684263
2 Jan 2000 03:31:06.000,6.809,-73.883,13850.115045
2 Jan 2000 03:32:06.000,6.688,-74.124,13773.593755
2 Jan 2000 03:33:06.000,6.562,-74.374,13698.160385
2 Jan 2000 03:34:06.000,6.433,-74.631,13623.855225
2 Jan 2000 03:35:06.000,6.300,-74.895,13550.718828
2 Jan 2000 03:36:06.000,6.162,-75.168,13478.791976
2 Jan 2000 03:37:06.000,6.019,-75.448,13408.115643
2 Jan 2000 03:38:06.000,5.870,-75.736,13338.730954
2 Jan 2000 03:39:06.000,5.715,-76.031,13270.679141
2 Jan 2000 03:40:06.000,5.553,-76.334,13204.001500
2 Jan 2000 03:41:06.000,5.383,-76.645,13138.739341
2 Jan 2000 03:42:06.000,5.205,-76.963,13074.933935
2 Jan 2000 03:43:06.000,5.017,-77.288,13012.626463
2 Jan 2000 03:44:06.000,4.819,-77.621,12951.857958
2 Jan 2000 03:45:06.000,4.610,-77.962,12892.669247
2 Jan 2000 03:46:06.000,4.387,-78.309,12835.100886
2 Jan 2000 03:47:06.000,4.150,-78.664,12779.193101
2 Jan 2000 03:48:06.000,3.896,-79.026,12724.985716
2 Jan 2000 03:49:06.000,3.624,-79.394,12672.518089
2 Jan 2000 03:50:06.000,3.330,-79.769,12621.829039
2 Jan 2000 03:51:06.000,3.013,-80.151,12572.956775
2 Jan 2000 03:52:06.000,2.668,-80.538,12525.938821
2 Jan 2000 03:53:06.000,2.292,-80.932,12480.811941
2 Jan 2000 03:54:06.000,1.880,-81.332,12437.612065
2 Jan 2000 03:55:06.000,1.425,-81.737,12396.374208
2 Jan 2000 03:56:06.000,0.920,-82.147,12357.132397
2 Jan 2000 03:57:06.000,0.356,-82.563,12319.919591
2 Jan 2000 03:58:06.000,359.722,-82.983,12284.767606
2 Jan 2000 03:59:06.000,359.004,-83.407,12251.707036
2 Jan 2000 04:00:06.000,358.182,-83.834,12220.767181
2 Jan 2000 04:01:06.000,357.232,-84.265,12191.975971
2 Jan 2000 04:02:06.000,356.122,-84.698,12165.359895
2 Jan 2000 04:03:06.000,354.808,-85.133,12140.943932
2 Jan 2000 04:04:06.000,353.229,-85.568,12118.751484
2 Jan 2000 04:05:06.000,351.299,-86.003,12098.804311
2 Jan 2000 04:06:06.000,348.889,-86.435,12081.122473
2 Jan 2000 04:07:06.000,345.809,-86.862,12065.724274
2 Jan 2000 04:08:06.000,341.759,-87.279,12052.626207
2 Jan 2000 04:09:06.000,336.262,-87.679,12041.842911
2 Jan 2000 04:10:06.000,328.557,-88.051,12033.387126
2 Jan 2000 04:11:06.000,317.506,-88.373,12027.269656
2 Jan 2000 04:12:06.000,301.903,-88.609,12023.499340
2 Jan 2000 04:13:06.000,282.078,-88.709,12022.083022
2 Jan 2000 04:14:06.000,261.746,-88.642,12023.025539
2 Jan 2000 04:15:06.000,245.154,-88.429,12026.329694
2 Jan 2000 04:16:06.000,233.256,-88.120,12031.996263
2 Jan 2000 04:17:06.000,224.974,-87.754,12040.023983
2 Jan 2000 04:18:06.000,219.105,-87.356,12050.409562
2 Jan 2000 04:19:06.000,214.813,-86.939,12063.147689
2 Jan 2000 04:20:06.000,211.573,-86.511,12078.231049
2 Jan 2000 04:21:06.000,209.056,-86.076,12095.650346
2 Jan 2000 04:22:06.000,207.052,-85.638,12115.394333
2 Jan 2000 04:23:06.000,205.424,-85.199,12137.449846
2 Jan 2000 04:24:06.000,204.078,-84.759,12161.801843
2 Jan 2000 04:25:06.000,202.948,-84.321,12188.433446
2 Jan 2000 04:26:06.000,201.988,-83.884,12217.325994
2 Jan 2000 04:27:06.000,201.162,-83.450,12248.459094
2 Jan 2000 04:28:06.000,200.447,-83.019,12281.810673
2 Jan 2000 04:29:06.000,199.821,-82.592,12317.357050
2 Jan 2000 04:30:06.000,199.270,-82.170,12355.072991
2 Jan 2000 04:31:06.000,198.781,-81.752,12394.931780
2 Jan 2000 04:32:06.000,198.346,-81.339,12436.905284
2 Jan 2000 04:33:06.000,197.956,-80.931,12480.964030
2 Jan 2000 04:34:06.000,197.606,-80.529,12527.077269
2 Jan 2000 04:35:06.000,197.289,-80.133,12575.213060
2 Jan 2000 04:36:06.000,197.003,-79.742,12625.338335
2 Jan 2000 04:37:06.000,196.742,-79.359,12677.418980
2 Jan 2000 04:38:06.000,196.505,-78.982,12731.419908
2 Jan 2000 04:39:06.000,196.289,-78.611,12787.305132
2 Jan 2000 04:40:06.000,196.091,-78.248,12845.037842
2 Jan 2000 04:41:06.000,195.910,-77.892,12904.580475
2 Jan 2000 04:42:06.000,195.744,-77.543,12965.894789
2 Jan 2000 04:43:06.000,195.591,-77.202,13028.941936
2 Jan 2000 04:44:06.000,195.451,-76.868,13093.682519
2 Jan 2000 04:45:06.000,195.323,-76.541,13160.076673
2 Jan 2000 04:46:06.000,195.205,-76.223,13228.084127
2 Jan 2000 04:47:06.000,195.097,-75.912,13297.664259
2 Jan 2000 04:48:06.000,194.997,-75.609,13368.776165
2 Jan 2000 04:49:06.000,194.906,-75.314,13441.378710
2 Jan 2000 04:50:06.000,194.823,-75.027,13515.430592
2 Jan 2000 04:51:06.000,194.747,-74.749,13590.890384
2 Jan 2000 04:52:06.000,194.677,-74.478,13667.716596
2 Jan 2000 04:53:06.000,194.614,-74.215,13745.867714
2 Jan 2000 04:54:06.000,194.557,-73.960,13825.302249
2 Jan 2000 04:55:06.000,194.505,-73.713,13905.978780
2 Jan 2000 04:56:06.000,194.459,-73.475,13987.855991
2 Jan 2000 04:57:06.000,194.418,-73.244,14070.892712
2 Jan 2000 04:58:06.000,194.382,-73.021,14155.047952
2 Jan 2000 04:59:06.000,194.350,-72.807,14240.280932
2 Jan 2000 05:00:06.000,194.322,-72.600,14326.551115
2 Jan 2000 05:01:06.000,194.299,-72.401,14413.818232
2 Jan 2000 05:02:06.000,194.280,-72.210,14502.042312
2 Jan 2000 05:03:06.000,194.265,-72.027,14591.183701
2 Jan 2000 05:04:06.000,194.253,-71.852,14681.203084
2 Jan 2000 05:05:06.000,194.245,-71.684,14772.061507
2 Jan 2000 05:06:06.000,194.241,-71.524,14863.720391
2 Jan 2000 05:07:06.000,194.240,-71.371,14956.141552
2 Jan 2000 05:08:06.000,194.242,-71.226,15049.287209
2 Jan 2000 05:09:06.000,194.248,-71.088,15143.120001
2 Jan 2000 05:10:06.000,194.256,-70.958,15237.603002
2 Jan 2000 05:11:06.000,194.268,-70.834,15332.699707
2 Jan 2000 05:12:06.000,194.283,-70.718,15428.374075
2 Jan 2000 05:13:06.000,194.301,-70.609,15524.590511
2 Jan 2000 05:14:06.000,194.321,-70.507,15621.313881
2 Jan 2000 05:15:06.000,194.345,-70.411,15718.509512
2 Jan 2000 05:16:06.000,194.371,-70.323,15816.143199
2 Jan 2000 05:17:06.000,194.401,-70.241,15914.181204
2 Jan 2000 05:18:06.000,194.433,-70.165,16012.590260
2 Jan 2000 05:19:06.000,194.468,-70.096,16111.337572
2 Jan 2000 05:19:31.518,194.483,-70.069,16153.429450

Interval Statistics
"Min Elevation",2 Jan 2000 04:13:12.043,279.967,-88.710,12022.071065
"Max Elevation",2 Jan 2000 03:04:06.923,9.505,-70.046,16189.948181
"Mean Elevation",,,-77.261,
"Min Range",2 Jan 2000 04:13:12.041,279.968,-88.710,12022.071065
"Max Range",2 Jan 2000 03:04:06.923,9.505,-70.046,16189.948181
"Mean Range",,,,13580.329401

"Time (UTCG)","Azimuth (deg)","Elevation (deg)","Range (km)"
2 Jan 2000 09:30:40.474,315.003,-70.051,16181.809848
2 Jan 2000 09:31:40.000,314.544,-70.103,16101.544153
2 Jan 2000 09:32:40.000,314.065,-70.159,16021.500102
2 Jan 2000 09:33:40.000,313.570,-70.219,15942.359092
2 Jan 2000 09:34:40.000,313.058,-70.282,15864.159940
2 Jan 2000 09:35:40.000,312.529,-70.349,15786.941649
2 Jan 2000 09:36:40.000,311.982,-70.419,15710.743375
2 Jan 2000 09:37:40.000,311.417,-70.492,15635.604403
2 Jan 2000 09:38:40.000,310.834,-70.569,15561.564113
2 Jan 2000 09:39:40.000,310.232,-70.649,15488.661946
2 Jan 2000 09:40:40.000,309.610,-70.732,15416.937376
2 Jan 2000 09:41:40.000,308.968,-70.817,15346.429864
2 Jan 2000 09:42:40.000,308.306,-70.905,15277.178827
2 Jan 2000 09:43:40.000,307.623,-70.996,15209.223595
2 Jan 2000 09:44:40.000,306.919,-71.089,15142.603368
2 Jan 2000 09:45:40.000,306.194,-71.184,15077.357172
2 Jan 2000 09:46:40.000,305.446,-71.281,15013.523817
2 Jan 2000 09:47:40.000,304.676,-71.379,14951.141843
2 Jan 2000 09:48:40.000,303.883,-71.479,14890.249477
2 Jan 2000 09:49:40.000,303.067,-71.580,14830.884577
2 Jan 2000 09:50:40.000,302.227,-71.682,14773.084583
2 Jan 2000 09:51:40.000,301.363,-71.785,14716.886462
2 Jan 2000 09:52:40.000,300.476,-71.888,14662.326651
2 Jan 2000 09:53:40.000,299.564,-71.991,14609.441007
2 Jan 2000 09:54:40.000,298.627,-72.094,14558.264731
2 Jan 2000 09:55:40.000,297.666,-72.196,14508.832354
2 Jan 2000 09:56:40.000,296.680,-72.298,14461.177621
2 Jan 2000 09:57:40.000,295.669,-72.398,14415.333468
2 Jan 2000 09:58:40.000,294.633,-72.497,14371.331953
2 Jan 2000 09:59:40.000,293.574,-72.594,14329.204198
2 Jan 2000 10:00:40.000,292.489,-72.689,14288.980328
2 Jan 2000 10:01:40.000,291.381,-72.781,14250.689413
2 Jan 2000 10:02:40.000,290.249,-72.871,14214.359409
2 Jan 2000 10:03:40.000,289.094,-72.957,14180.017102
2 Jan 2000 10:04:40.000,287.917,-73.040,14147.688051
2 Jan 2000 10:05:40.000,286.717,-73.120,14117.396532
2 Jan 2000 10:06:40.000,285.497,-73.195,14089.165488
2 Jan 2000 10:07:40.000,284.257,-73.265,14063.016477
2 Jan 2000 10:08:40.000,282.998,-73.331,14038.969623
2 Jan 2000 10:09:40.000,281.722,-73.392,14017.043568
2 Jan 2000 10:10:40.000,280.428,-73.448,13997.255430
2 Jan 2000 10:11:40.000,279.120,-73.498,13979.620773
2 Jan 2000 10:12:40.000,277.798,-73.543,13964.153550
2 Jan 2000 10:13:40.000,276.465,-73.581,13950.866084
2 Jan 2000 10:14:40.000,275.121,-73.613,13939.769034
2 Jan 2000 10:15:40.000,273.768,-73.640,13930.871368
2 Jan 2000 10:16:40.000,272.408,-73.659,13924.180344
2 Jan 2000 10:17:40.000,271.044,-73.673,13919.701491
2 Jan 2000 10:18:40.000,269.676,-73.679,13917.438591
2 Jan 2000 10:19:40.000,268.307,-73.679,13917.393679
2 Jan 2000 10:20:40.000,266.939,-73.673,13919.567027
2 Jan 2000 10:21:40.000,265.574,-73.660,13923.957153
2 Jan 2000 10:22:40.000,264.214,-73.640,13930.560820
2 Jan 2000 10:23:40.000,262.859,-73.615,13939.373045
2 Jan 2000 10:24:40.000,261.513,-73.582,13950.387112
2 Jan 2000 10:25:40.000,260.177,-73.544,13963.594589
2 Jan 2000 10:26:40.000,258.853,-73.500,13978.985350
2 Jan 2000 10:27:40.000,257.542,-73.450,13996.547597
2 Jan 2000 10:28:40.000,256.245,-73.395,14016.267895
2 Jan 2000 10:29:40.000,254.965,-73.334,14038.131197
2 Jan 2000 10:30:40.000,253.702,-73.268,14062.120887
2 Jan 2000 10:31:40.000,252.458,-73.197,14088.218816
2 Jan 2000 10:32:40.000,251.233,-73.122,14116.405344
2 Jan 2000 10:33:40.000,250.029,-73.043,14146.659389
2 Jan 2000 10:34:40.000,248.847,-72.960,14178.958472
2 Jan 2000 10:35:40.000,247.686,-72.874,14213.278767
2 Jan 2000 10:36:40.000,246.549,-72.784,14249.595158
2 Jan 2000 10:37:40.000,245.434,-72.691,14287.881286
2 Jan 2000 10:38:40.000,244.344,-72.596,14328.109611
2 Jan 2000 10:39:40.000,243.278,-72.499,14370.251472
2 Jan 2000 10:40:40.000,242.235,-72.400,14414.277124
2 Jan 2000 10:41:40.000,241.218,-72.300,14460.155828
2 Jan 2000 10:42:40.000,240.225,-72.198,14507.855889
2 Jan 2000 10:43:40.000,239.256,-72.096,14557.344723
2 Jan 2000 10:44:40.000,238.312,-71.993,14608.588913
2 Jan 2000 10:45:40.000,237.392,-71.889,14661.554272
2 Jan 2000 10:46:40.000,236.496,-71.786,14716.205899
2 Jan 2000 10:47:40.000,235.625,-71.683,14772.508238
2 Jan 2000 10:48:40.000,234.777,-71.581,14830.425137
2 Jan 2000 10:49:40.000,233.952,-71.480,14889.919902
2 Jan 2000 10:50:40.000,233.150,-71.380,14950.955355
2 Jan 2000 10:51:40.000,232.371,-71.281,15013.493887
2 Jan 2000 10:52:40.000,231.614,-71.184,15077.497509
2 Jan 2000 10:53:40.000,230.879,-71.088,15142.927904
2 Jan 2000 10:54:40.000,230.165,-70.995,15209.746481
2 Jan 2000 10:55:40.000,229.472,-70.904,15277.914415
2 Jan 2000 10:56:40.000,228.800,-70.816,15347.392702
2 Jan 2000 10:57:40.000,228.148,-70.730,15418.142193
2 Jan 2000 10:58:40.000,227.516,-70.647,15490.123648
2 Jan 2000 10:59:40.000,226.903,-70.567,15563.297778
2 Jan 2000 11:00:40.000,226.308,-70.490,15637.625250
2 Jan 2000 11:01:40.000,225.732,-70.417,15713.066777
2 Jan 2000 11:02:40.000,225.174,-70.346,15789.583120
2 Jan 2000 11:03:40.000,224.633,-70.279,15867.135126
2 Jan 2000 11:04:40.000,224.109,-70.216,15945.683764
2 Jan 2000 11:05:40.000,223.602,-70.156,16025.190150
2 Jan 2000 11:06:40.000,223.110,-70.100,16105.615578
2 Jan 2000 11:07:38.486,222.647,-70.049,16184.859399

Interval Statistics
"Min Elevation",2 Jan 2000 10:19:11.215,268.964,-73.680,13917.138373
"Max Elevation",2 Jan 2000 11:07:38.486,222.647,-70.049,16184.859402
"Mean Elevation",,,-72.023,
"Min Range",2 Jan 2000 10:19:11.215,268.964,-73.680,13917.138373
"Max Range",2 Jan 2000 11:07:38.486,222.647,-70.049,16184.859402
"Mean Range",,,,14730.436896

"Time (UTCG)","Azimuth (deg)","Elevation (deg)","Range (km)"
2 Jan 2000 15:24:33.659,354.436,-70.070,16152.041243
2 Jan 2000 15:25:33.000,354.563,-70.134,16055.859665
2 Jan 2000 15:26:33.000,354.692,-70.206,15958.963462
2 Jan 2000 15:27:33.000,354.823,-70.283,15862.453545
2 Jan 2000 15:28:33.000,354.955,-70.367,15766.361091
2 Jan 2000 15:29:33.000,355.089,-70.457,15670.717677
2 Jan 2000 15:30:33.000,355.225,-70.554,15575.555273
2 Jan 2000 15:31:33.000,355.362,-70.658,15480.906241
2 Jan 2000 15:32:33.000,355.502,-70.768,15386.803331
2 Jan 2000 15:33:33.000,355.644,-70.885,15293.279675
2 Jan 2000 15:34:33.000,355.789,-71.008,15200.368784
2 Jan 2000 15:35:33.000,355.936,-71.139,15108.104535
2 Jan 2000 15:36:33.000,356.086,-71.276,15016.521166
2 Jan 2000 15:37:33.000,356.240,-71.421,14925.653268
2 Jan 2000 15:38:33.000,356.397,-71.572,14835.535771
2 Jan 2000 15:39:33.000,356.557,-71.731,14746.203936
2 Jan 2000 15:40:33.000,356.722,-71.897,14657.693336
2 Jan 2000 15:41:33.000,356.891,-72.070,14570.039847
2 Jan 2000 15:42:33.000,357.064,-72.250,14483.279625
2 Jan 2000 15:43:33.000,357.243,-72.438,14397.449097
2 Jan 2000 15:44:33.000,357.427,-72.633,14312.584931
2 Jan 2000 15:45:33.000,357.617,-72.835,14228.724022
2 Jan 2000 15:46:33.000,357.813,-73.045,14145.903467
2 Jan 2000 15:47:33.000,358.015,-73.262,14064.160536
2 Jan 2000 15:48:33.000,358.225,-73.487,13983.532652
2 Jan 2000 15:49:33.000,358.443,-73.719,13904.057356
2 Jan 2000 15:50:33.000,358.669,-73.959,13825.772277
2 Jan 2000 15:51:33.000,358.905,-74.205,13748.715102
2 Jan 2000 15:52:33.000,359.150,-74.460,13672.923538
2 Jan 2000 15:53:33.000,359.406,-74.721,13598.435275
2 Jan 2000 15:54:33.000,359.673,-74.990,13525.287948
2 Jan 2000 15:55:33.000,359.954,-75.266,13453.519093
2 Jan 2000 15:56:33.000,0.247,-75.550,13383.166108
2 Jan 2000 15:57:33.000,0.556,-75.840,13314.266200
2 Jan 2000 15:58:33.000,0.881,-76.138,13246.856346
2 Jan 2000 15:59:33.000,1.224,-76.442,13180.973235
2 Jan 2000 16:00:33.000,1.586,-76.753,13116.653221
2 Jan 2000 16:01:33.000,1.969,-77.071,13053.932271
2 Jan 2000 16:02:33.000,2.376,-77.395,12992.845903
2 Jan 2000 16:03:33.000,2.809,-77.726,12933.429138
2 Jan 2000 16:04:33.000,3.270,-78.062,12875.716435
2 Jan 2000 16:05:33.000,3.763,-78.405,12819.741632
2 Jan 2000 16:06:33.000,4.290,-78.753,12765.537890
2 Jan 2000 16:07:33.000,4.857,-79.107,12713.137627
2 Jan 2000 16:08:33.000,5.468,-79.466,12662.572456
2 Jan 2000 16:09:33.000,6.128,-79.830,12613.873124
2 Jan 2000 16:10:33.000,6.843,-80.198,12567.069446
2 Jan 2000 16:11:33.000,7.620,-80.570,12522.190247
2 Jan 2000 16:12:33.000,8.469,-80.946,12479.263292
2 Jan 2000 16:13:33.000,9.398,-81.325,12438.315232
2 Jan 2000 16:14:33.000,10.420,-81.707,12399.371534
2 Jan 2000 16:15:33.000,11.549,-82.090,12362.456432
2 Jan 2000 16:16:33.000,12.802,-82.475,12327.592853
2 Jan 2000 16:17:33.000,14.199,-82.860,12294.802377
2 Jan 2000 16:18:33.000,15.764,-83.244,12264.105172
2 Jan 2000 16:19:33.000,17.527,-83.626,12235.519946
2 Jan 2000 16:20:33.000,19.525,-84.005,12209.063896
2 Jan 2000 16:21:33.000,21.801,-84.379,12184.752664
2 Jan 2000 16:22:33.000,24.410,-84.745,12162.600291
2 Jan 2000 16:23:33.000,27.415,-85.102,12142.619183
2 Jan 2000 16:24:33.000,30.896,-85.445,12124.820073
2 Jan 2000 16:25:33.000,34.940,-85.770,12109.211990
2 Jan 2000 16:26:33.000,39.644,-86.073,12095.802234
2 Jan 2000 16:27:33.000,45.102,-86.346,12084.596354
2 Jan 2000 16:28:33.000,51.387,-86.582,12075.598130
2 Jan 2000 16:29:33.000,58.511,-86.772,12068.809564
2 Jan 2000 16:30:33.000,66.391,-86.906,12064.230866
2 Jan 2000 16:31:33.000,74.815,-86.979,12061.860461
2 Jan 2000 16:32:33.000,83.452,-86.984,12061.694987
2 Jan 2000 16:33:33.000,91.918,-86.921,12063.729303
2 Jan 2000 16:34:33.000,99.872,-86.796,12067.956503
2 Jan 2000 16:35:33.000,107.086,-86.615,12074.367935
2 Jan 2000 16:36:33.000,113.462,-86.388,12082.953222
2 Jan 2000 16:37:33.000,119.005,-86.123,12093.700290
2 Jan 2000 16:38:33.000,123.783,-85.828,12106.595404
2 Jan 2000 16:39:33.000,127.887,-85.509,12121.623196
2 Jan 2000 16:40:33.000,131.416,-85.174,12138.766716
2 Jan 2000 16:41:33.000,134.459,-84.825,12158.007467
2 Jan 2000 16:42:33.000,137.096,-84.466,12179.325459
2 Jan 2000 16:43:33.000,139.391,-84.100,12202.699259
2 Jan 2000 16:44:33.000,141.401,-83.730,12228.106039
2 Jan 2000 16:45:33.000,143.170,-83.356,12255.521643
2 Jan 2000 16:46:33.000,144.735,-82.981,12284.920640
2 Jan 2000 16:47:33.000,146.128,-82.605,12316.276384
2 Jan 2000 16:48:33.000,147.372,-82.230,12349.561082
2 Jan 2000 16:49:33.000,148.489,-81.856,12384.745852
2 Jan 2000 16:50:33.000,149.496,-81.484,12421.800792
2 Jan 2000 16:51:33.000,150.407,-81.115,12460.695044
2 Jan 2000 16:52:33.000,151.234,-80.750,12501.396861
2 Jan 2000 16:53:33.000,151.988,-80.388,12543.873672
2 Jan 2000 16:54:33.000,152.677,-80.030,12588.092150
2 Jan 2000 16:55:33.000,153.308,-79.677,12634.018276
2 Jan 2000 16:56:33.000,153.888,-79.329,12681.617404
2 Jan 2000 16:57:33.000,154.422,-78.986,12730.854325
2 Jan 2000 16:58:33.000,154.914,-78.648,12781.693330
2 Jan 2000 16:59:33.000,155.370,-78.316,12834.098272
2 Jan 2000 17:00:33.000,155.792,-77.989,12888.032625
2 Jan 2000 17:01:33.000,156.183,-77.669,12943.459540
2 Jan 2000 17:02:33.000,156.547,-77.354,13000.341905
2 Jan 2000 17:03:33.000,156.885,-77.046,13058.642399
2 Jan 2000 17:04:33.000,157.200,-76.745,13118.323544
2 Jan 2000 17:05:33.000,157.494,-76.450,13179.347753
2 Jan 2000 17:06:33.000,157.768,-76.161,13241.677381
2 Jan 2000 17:07:33.000,158.024,-75.879,13305.274769
2 Jan 2000 17:08:33.000,158.263,-75.604,13370.102290
2 Jan 2000 17:09:33.000,158.487,-75.335,13436.122389
2 Jan 2000 17:10:33.000,158.696,-75.074,13503.297621
2 Jan 2000 17:11:33.000,158.892,-74.819,13571.590689
2 Jan 2000 17:12:33.000,159.075,-74.571,13640.964479
2 Jan 2000 17:13:33.000,159.246,-74.329,13711.382095
2 Jan 2000 17:14:33.000,159.406,-74.095,13782.806882
2 Jan 2000 17:15:33.000,159.556,-73.867,13855.202461
2 Jan 2000 17:16:33.000,159.696,-73.646,13928.532752
2 Jan 2000 17:17:33.000,159.826,-73.432,14002.762000
2 Jan 2000 17:18:33.000,159.948,-73.225,14077.854795
2 Jan 2000 17:19:33.000,160.062,-73.025,14153.776092
2 Jan 2000 17:20:33.000,160.168,-72.831,14230.491233
2 Jan 2000 17:21:33.000,160.266,-72.644,14307.965958
2 Jan 2000 17:22:33.000,160.357,-72.463,14386.166427
2 Jan 2000 17:23:33.000,160.442,-72.289,14465.059226
2 Jan 2000 17:24:33.000,160.520,-72.122,14544.611385
2 Jan 2000 17:25:33.000,160.592,-71.961,14624.790384
2 Jan 2000 17:26:33.000,160.658,-71.806,14705.564167
2 Jan 2000 17:27:33.000,160.718,-71.657,14786.901144
2 Jan 2000 17:28:33.000,160.773,-71.515,14868.770203
2 Jan 2000 17:29:33.000,160.822,-71.379,14951.140711
2 Jan 2000 17:30:33.000,160.867,-71.249,15033.982521
2 Jan 2000 17:31:33.000,160.907,-71.125,15117.265977
2 Jan 2000 17:32:33.000,160.942,-71.007,15200.961913
2 Jan 2000 17:33:33.000,160.972,-70.895,15285.041654
2 Jan 2000 17:34:33.000,160.998,-70.789,15369.477023
2 Jan 2000 17:35:33.000,161.020,-70.688,15454.240333
2 Jan 2000 17:36:33.000,161.038,-70.593,15539.304394
2 Jan 2000 17:37:33.000,161.051,-70.503,15624.642506
2 Jan 2000 17:38:33.000,161.061,-70.419,15710.228456
2 Jan 2000 17:39:33.000,161.067,-70.340,15796.036530
2 Jan 2000 17:40:33.000,161.069,-70.267,15882.041488
2 Jan 2000 17:41:33.000,161.067,-70.199,15968.218576
2 Jan 2000 17:42:33.000,161.062,-70.135,16054.543519
2 Jan 2000 17:43:33.000,161.053,-70.077,16140.992516
2 Jan 2000 17:44:06.710,161.047,-70.047,16189.608129

Interval Statistics
"Min Elevation",2 Jan 2000 16:32:07.501,79.780,-86.990,12061.496189
"Max Elevation",2 Jan 2000 17:44:06.710,161.047,-70.047,16189.608129
"Mean Elevation",,,-76.971,
"Min Range",2 Jan 2000 16:32:07.503,79.781,-86.990,12061.496189
"Max Range",2 Jan 2000 17:44:06.710,161.047,-70.047,16189.608129
"Mean Range",,,,13602.205624

"Time (UTCG)","Azimuth (deg)","Elevation (deg)","Range (km)"
2 Jan 2000 23:29:17.369,40.646,-70.049,16186.049382
2 Jan 2000 23:30:17.000,40.832,-70.088,16124.529678
2 Jan 2000 23:31:17.000,41.025,-70.130,16062.771686
2 Jan 2000 23:32:17.000,41.225,-70.174,16001.168546
2 Jan 2000 23:33:17.000,41.433,-70.221,15939.732964
2 Jan 2000 23:34:17.000,41.647,-70.270,15878.477892
2 Jan 2000 23:35:17.000,41.868,-70.322,15817.416528
2 Jan 2000 23:36:17.000,42.097,-70.376,15756.562319
2 Jan 2000 23:37:17.000,42.334,-70.433,15695.928959
2 Jan 2000 23:38:17.000,42.578,-70.492,15635.530392
2 Jan 2000 23:39:17.000,42.831,-70.554,15575.380813
2 Jan 2000 23:40:17.000,43.091,-70.619,15515.494667
2 Jan 2000 23:41:17.000,43.360,-70.686,15455.886650
2 Jan 2000 23:42:17.000,43.638,-70.756,15396.571708
2 Jan 2000 23:43:17.000,43.925,-70.828,15337.565038
2 Jan 2000 23:44:17.000,44.222,-70.903,15278.882085
2 Jan 2000 23:45:17.000,44.527,-70.981,15220.538543
2 Jan 2000 23:46:17.000,44.843,-71.061,15162.550354
2 Jan 2000 23:47:17.000,45.169,-71.143,15104.933704
2 Jan 2000 23:48:17.000,45.505,-71.228,15047.705024
2 Jan 2000 23:49:17.000,45.851,-71.316,14990.880983
2 Jan 2000 23:50:17.000,46.209,-71.406,14934.478491
2 Jan 2000 23:51:17.000,46.578,-71.499,14878.514691
2 Jan 2000 23:52:17.000,46.959,-71.594,14823.006958
2 Jan 2000 23:53:17.000,47.352,-71.691,14767.972893
2 Jan 2000 23:54:17.000,47.758,-71.791,14713.430322
2 Jan 2000 23:55:17.000,48.176,-71.893,14659.397285
2 Jan 2000 23:56:17.000,48.608,-71.998,14605.892037
2 Jan 2000 23:57:17.000,49.053,-72.105,14552.933036
2 Jan 2000 23:58:17.000,49.512,-72.214,14500.538941
2 Jan 2000 23:59:17.000,49.986,-72.325,14448.728603
3 Jan 2000 00:00:17.000,50.475,-72.438,14397.521056
3 Jan 2000 00:01:17.000,50.979,-72.553,14346.935512
3 Jan 2000 00:02:17.000,51.499,-72.670,14296.991349
3 Jan 2000 00:03:17.000,52.036,-72.789,14247.708101
3 Jan 2000 00:04:17.000,52.590,-72.909,14199.105453
3 Jan 2000 00:05:17.000,53.161,-73.031,14151.203224
3 Jan 2000 00:06:17.000,53.750,-73.155,14104.021358
3 Jan 2000 00:07:17.000,54.357,-73.280,14057.579915
3 Jan 2000 00:08:17.000,54.984,-73.407,14011.899052
3 Jan 2000 00:09:17.000,55.630,-73.534,13966.999016
3 Jan 2000 00:10:17.000,56.297,-73.663,13922.900126
3 Jan 2000 00:11:17.000,56.984,-73.793,13879.622757
3 Jan 2000 00:12:17.000,57.693,-73.923,13837.187331
3 Jan 2000 00:13:17.000,58.423,-74.054,13795.614294
3 Jan 2000 00:14:17.000,59.177,-74.185,13754.924102
3 Jan 2000 00:15:17.000,59.953,-74.317,13715.137205
3 Jan 2000 00:16:17.000,60.753,-74.448,13676.274026
3 Jan 2000 00:17:17.000,61.577,-74.580,13638.354945
3 Jan 2000 00:18:17.000,62.426,-74.711,13601.400279
3 Jan 2000 00:19:17.000,63.301,-74.841,13565.430261
3 Jan 2000 00:20:17.000,64.201,-74.971,13530.465019
3 Jan 2000 00:21:17.000,65.128,-75.099,13496.524559
3 Jan 2000 00:22:17.000,66.082,-75.227,13463.628735
3 Jan 2000 00:23:17.000,67.063,-75.353,13431.797245
3 Jan 2000 00:24:17.000,68.071,-75.476,13401.049584
3 Jan 2000 00:25:17.000,69.107,-75.598,13371.405039
3 Jan 2000 00:26:17.000,70.171,-75.718,13342.882660
3 Jan 2000 00:27:17.000,71.264,-75.835,13315.501235
3 Jan 2000 00:28:17.000,72.385,-75.949,13289.279272
3 Jan 2000 00:29:17.000,73.534,-76.060,13264.234967
3 Jan 2000 00:30:17.000,74.712,-76.167,13240.386186
3 Jan 2000 00:31:17.000,75.917,-76.270,13217.750441
3 Jan 2000 00:32:17.000,77.151,-76.370,13196.344860
3 Jan 2000 00:33:17.000,78.411,-76.465,13176.186169
3 Jan 2000 00:34:17.000,79.698,-76.555,13157.290665
3 Jan 2000 00:35:17.000,81.011,-76.640,13139.674193
3 Jan 2000 00:36:17.000,82.349,-76.720,13123.352122
3 Jan 2000 00:37:17.000,83.711,-76.794,13108.339321
3 Jan 2000 00:38:17.000,85.096,-76.863,13094.650138
3 Jan 2000 00:39:17.000,86.502,-76.925,13082.298376
3 Jan 2000 00:40:17.000,87.928,-76.981,13071.297272
3 Jan 2000 00:41:17.000,89.373,-77.031,13061.659475
3 Jan 2000 00:42:17.000,90.834,-77.074,13053.397026
3 Jan 2000 00:43:17.000,92.310,-77.109,13046.521338
3 Jan 2000 00:44:17.000,93.799,-77.138,13041.043176
3 Jan 2000 00:45:17.000,95.298,-77.159,13036.972643
3 Jan 2000 00:46:17.000,96.806,-77.173,13034.319148
3 Jan 2000 00:47:17.000,98.320,-77.180,13033.091428
3 Jan 2000 00:48:17.000,99.838,-77.179,13033.297483
3 Jan 2000 00:49:17.000,101.358,-77.170,13034.944592
3 Jan 2000 00:50:17.000,102.876,-77.154,13038.039298
3 Jan 2000 00:51:17.000,104.392,-77.130,13042.587388
3 Jan 2000 00:52:17.000,105.902,-77.099,13048.593891
3 Jan 2000 00:53:17.000,107.404,-77.060,13056.063066
3 Jan 2000 00:54:17.000,108.896,-77.014,13064.998392
3 Jan 2000 00:55:17.000,110.376,-76.960,13075.402567
3 Jan 2000 00:56:17.000,111.842,-76.900,13087.277498
3 Jan 2000 00:57:17.000,113.292,-76.833,13100.624301
3 Jan 2000 00:58:17.000,114.725,-76.759,13115.443299
3 Jan 2000 00:59:17.000,116.138,-76.679,13131.734021
3 Jan 2000 01:00:17.000,117.530,-76.592,13149.495200
3 Jan 2000 01:01:17.000,118.900,-76.500,13168.724780
3 Jan 2000 01:02:17.000,120.247,-76.402,13189.419918
3 Jan 2000 01:03:17.000,121.569,-76.299,13211.576985
3 Jan 2000 01:04:17.000,122.866,-76.190,13235.191580
3 Jan 2000 01:05:17.000,124.137,-76.077,13260.258529
3 Jan 2000 01:06:17.000,125.382,-75.960,13286.771902
3 Jan 2000 01:07:17.000,126.600,-75.838,13314.725005
3 Jan 2000 01:08:17.000,127.791,-75.713,13344.110438
3 Jan 2000 01:09:17.000,128.953,-75.584,13374.920045
3 Jan 2000 01:10:17.000,130.089,-75.452,13407.144962
3 Jan 2000 01:11:17.000,131.196,-75.317,13440.775632
3 Jan 2000 01:12:17.000,132.277,-75.179,13475.801810
3 Jan 2000 01:13:17.000,133.329,-75.040,13512.212584
3 Jan 2000 01:14:17.000,134.355,-74.898,13549.996393
3 Jan 2000 01:15:17.000,135.354,-74.755,13589.141040
3 Jan 2000 01:16:17.000,136.326,-74.610,13629.633715
3 Jan 2000 01:17:17.000,137.272,-74.465,13671.461009
3 Jan 2000 01:18:17.000,138.192,-74.318,13714.608939
3 Jan 2000 01:19:17.000,139.088,-74.172,13759.062964
3 Jan 2000 01:20:17.000,139.958,-74.025,13804.808003
3 Jan 2000 01:21:17.000,140.805,-73.878,13851.828463
3 Jan 2000 01:22:17.000,141.628,-73.731,13900.108252
3 Jan 2000 01:23:17.000,142.428,-73.585,13949.630804
3 Jan 2000 01:24:17.000,143.206,-73.439,14000.379100
3 Jan 2000 01:25:17.000,143.962,-73.295,14052.335687
3 Jan 2000 01:26:17.000,144.696,-73.151,14105.482700
3 Jan 2000 01:27:17.000,145.410,-73.009,14159.801884
3 Jan 2000 01:28:17.000,146.104,-72.869,14215.274616
3 Jan 2000 01:29:17.000,146.779,-72.730,14271.881922
3 Jan 2000 01:30:17.000,147.434,-72.593,14329.604501
3 Jan 2000 01:31:17.000,148.072,-72.458,14388.422732
3 Jan 2000 01:32:17.000,148.691,-72.325,14448.316740
3 Jan 2000 01:33:17.000,149.293,-72.195,14509.266349
3 Jan 2000 01:34:17.000,149.879,-72.067,14571.251146
3 Jan 2000 01:35:17.000,150.449,-71.942,14634.250488
3 Jan 2000 01:36:17.000,151.002,-71.820,14698.243521
3 Jan 2000 01:37:17.000,151.541,-71.700,14763.209199
3 Jan 2000 01:38:17.000,152.065,-71.583,14829.126300
3 Jan 2000 01:39:17.000,152.575,-71.470,14895.973445
3 Jan 2000 01:40:17.000,153.071,-71.359,14963.729115
3 Jan 2000 01:41:17.000,153.554,-71.252,15032.371665
3 Jan 2000 01:42:17.000,154.024,-71.148,15101.879342
3 Jan 2000 01:43:17.000,154.481,-71.047,15172.230298
3 Jan 2000 01:44:17.000,154.927,-70.950,15243.402608
3 Jan 2000 01:45:17.000,155.361,-70.856,15315.374281
3 Jan 2000 01:46:17.000,155.783,-70.766,15388.123274
3 Jan 2000 01:47:17.000,156.195,-70.680,15461.627508
3 Jan 2000 01:48:17.000,156.596,-70.597,15535.864877
3 Jan 2000 01:49:17.000,156.987,-70.518,15610.813261
3 Jan 2000 01:50:17.000,157.368,-70.442,15686.450539
3 Jan 2000 01:51:17.000,157.740,-70.370,15762.754598
3 Jan 2000 01:52:17.000,158.102,-70.302,15839.703344
3 Jan 2000 01:53:17.000,158.456,-70.238,15917.274715
3 Jan 2000 01:54:17.000,158.801,-70.178,15995.446683
3 Jan 2000 01:55:17.000,159.137,-70.122,16074.197270
3 Jan 2000 01:56:17.000,159.465,-70.069,16153.504556
3 Jan 2000 01:56:18.260,159.472,-70.068,16155.175321

Interval Statistics
"Min Elevation",3 Jan 2000 00:47:38.408,98.862,-77.180,13033.000033
"Max Elevation",2 Jan 2000 23:29:17.369,40.646,-70.049,16186.049382
"Mean Elevation",,,-73.620,
"Min Range",3 Jan 2000 00:47:38.403,98.862,-77.180,13033.000033
"Max Range",2 Jan 2000 23:29:17.369,40.646,-70.049,16186.049382
"Mean Range",,,,14194.367525

"Time (UTCG)","Azimuth (deg)","Elevation (deg)","Range (km)"
3 Jan 2000 06:33:11.788,332.813,-70.047,16189.000780
3 Jan 2000 06:34:11.000,332.416,-70.104,16100.158374
3 Jan 2000 06:35:11.000,332.001,-70.167,16010.804774
3 Jan 2000 06:36:11.000,331.573,-70.234,15922.163363
3 Jan 2000 06:37:11.000,331.130,-70.307,15834.272062
3 Jan 2000 06:38:11.000,330.674,-70.385,15747.169182
3 Jan 2000 06:39:11.000,330.202,-70.467,15660.893402
3 Jan 2000 06:40:11.000,329.715,-70.554,15575.483752
3 Jan 2000 06:41:11.000,329.212,-70.646,15490.979598
3 Jan 2000 06:42:11.000,328.692,-70.743,15407.420614
3 Jan 2000 06:43:11.000,328.155,-70.844,15324.846762
3 Jan 2000 06:44:11.000,327.600,-70.950,15243.298267
3 Jan 2000 06:45:11.000,327.027,-71.060,15162.815587
3 Jan 2000 06:46:11.000,326.434,-71.175,15083.439385
3 Jan 2000 06:47:11.000,325.821,-71.294,15005.210500
3 Jan 2000 06:48:11.000,325.188,-71.416,14928.169905
3 Jan 2000 06:49:11.000,324.532,-71.543,14852.358682
3 Jan 2000 06:50:11.000,323.855,-71.674,14777.817974
3 Jan 2000 06:51:11.000,323.154,-71.808,14704.588950
3 Jan 2000 06:52:11.000,322.429,-71.945,14632.712759
3 Jan 2000 06:53:11.000,321.679,-72.086,14562.230486
3 Jan 2000 06:54:11.000,320.904,-72.229,14493.183106
3 Jan 2000 06:55:11.000,320.102,-72.375,14425.611430
3 Jan 2000 06:56:11.000,319.272,-72.524,14359.556058
3 Jan 2000 06:57:11.000,318.414,-72.674,14295.057321
3 Jan 2000 06:58:11.000,317.526,-72.827,14232.155227
3 Jan 2000 06:59:11.000,316.608,-72.981,14170.889401
3 Jan 2000 07:00:11.000,315.659,-73.136,14111.299025
3 Jan 2000 07:01:11.000,314.678,-73.292,14053.422781
3 Jan 2000 07:02:11.000,313.664,-73.448,13997.298778
3 Jan 2000 07:03:11.000,312.616,-73.604,13942.964496
3 Jan 2000 07:04:11.000,311.534,-73.760,13890.456714
3 Jan 2000 07:05:11.000,310.416,-73.915,13839.811448
3 Jan 2000 07:06:11.000,309.263,-74.068,13791.063877
3 Jan 2000 07:07:11.000,308.074,-74.220,13744.248280
3 Jan 2000 07:08:11.000,306.847,-74.370,13699.397963
3 Jan 2000 07:09:11.000,305.584,-74.516,13656.545193
3 Jan 2000 07:10:11.000,304.283,-74.660,13615.721126
3 Jan 2000 07:11:11.000,302.946,-74.799,13576.955744
3 Jan 2000 07:12:11.000,301.571,-74.934,13540.277782
3 Jan 2000 07:13:11.000,300.160,-75.064,13505.714667
3 Jan 2000 07:14:11.000,298.712,-75.189,13473.292451
3 Jan 2000 07:15:11.000,297.230,-75.308,13443.035748
3 Jan 2000 07:16:11.000,295.713,-75.420,13414.967679
3 Jan 2000 07:17:11.000,294.163,-75.525,13389.109801
3 Jan 2000 07:18:11.000,292.582,-75.623,13365.482068
3 Jan 2000 07:19:11.000,290.972,-75.713,13344.102774
3 Jan 2000 07:20:11.000,289.335,-75.794,13324.988500
3 Jan 2000 07:21:11.000,287.673,-75.867,13308.154076
3 Jan 2000 07:22:11.000,285.989,-75.930,13293.612536
3 Jan 2000 07:23:11.000,284.286,-75.984,13281.375088
3 Jan 2000 07:24:11.000,282.566,-76.028,13271.451076
3 Jan 2000 07:25:11.000,280.834,-76.061,13263.847961
3 Jan 2000 07:26:11.000,279.093,-76.085,13258.571293
3 Jan 2000 07:27:11.000,277.346,-76.098,13255.624699
3 Jan 2000 07:28:11.000,275.597,-76.101,13255.009872
3 Jan 2000 07:29:11.000,273.849,-76.093,13256.726563
3 Jan 2000 07:30:11.000,272.107,-76.075,13260.772587
3 Jan 2000 07:31:11.000,270.373,-76.047,13267.143806
3 Jan 2000 07:32:11.000,268.653,-76.008,13275.834173
3 Jan 2000 07:33:11.000,266.947,-75.960,13286.835724
3 Jan 2000 07:34:11.000,265.261,-75.901,13300.138608
3 Jan 2000 07:35:11.000,263.597,-75.834,13315.731107
3 Jan 2000 07:36:11.000,261.958,-75.757,13333.599671
3 Jan 2000 07:37:11.000,260.346,-75.672,13353.728949
3 Jan 2000 07:38:11.000,258.764,-75.579,13376.101835
3 Jan 2000 07:39:11.000,257.213,-75.478,13400.699503
3 Jan 2000 07:40:11.000,255.695,-75.370,13427.501462
3 Jan 2000 07:41:11.000,254.213,-75.255,13456.485603
3 Jan 2000 07:42:11.000,252.766,-75.134,13487.628253
3 Jan 2000 07:43:11.000,251.356,-75.007,13520.904237
3 Jan 2000 07:44:11.000,249.984,-74.875,13556.286941
3 Jan 2000 07:45:11.000,248.649,-74.738,13593.748340
3 Jan 2000 07:46:11.000,247.354,-74.598,13633.259119
3 Jan 2000 07:47:11.000,246.096,-74.453,13674.788699
3 Jan 2000 07:48:11.000,244.877,-74.306,13718.305315
3 Jan 2000 07:49:11.000,243.696,-74.156,13763.776082
3 Jan 2000 07:50:11.000,242.553,-74.004,13811.167067
3 Jan 2000 07:51:11.000,241.447,-73.851,13860.443353
3 Jan 2000 07:52:11.000,240.377,-73.697,13911.569113
3 Jan 2000 07:53:11.000,239.344,-73.542,13964.507675
3 Jan 2000 07:54:11.000,238.346,-73.386,14019.221589
3 Jan 2000 07:55:11.000,237.383,-73.231,14075.672698
3 Jan 2000 07:56:11.000,236.453,-73.077,14133.822203
3 Jan 2000 07:57:11.000,235.556,-72.923,14193.630725
3 Jan 2000 07:58:11.000,234.691,-72.771,14255.058373
3 Jan 2000 07:59:11.000,233.858,-72.620,14318.064804
3 Jan 2000 08:00:11.000,233.054,-72.471,14382.609280
3 Jan 2000 08:01:11.000,232.280,-72.325,14448.650745
3 Jan 2000 08:02:11.000,231.534,-72.181,14516.147829
3 Jan 2000 08:03:11.000,230.816,-72.039,14585.058974
3 Jan 2000 08:04:11.000,230.125,-71.901,14655.342440
3 Jan 2000 08:05:11.000,229.459,-71.766,14726.956367
3 Jan 2000 08:06:11.000,228.819,-71.634,14799.858822
3 Jan 2000 08:07:11.000,228.202,-71.506,14874.007843
3 Jan 2000 08:08:11.000,227.609,-71.382,14949.361488
3 Jan 2000 08:09:11.000,227.039,-71.262,15025.877865
3 Jan 2000 08:10:11.000,226.490,-71.145,15103.515184
3 Jan 2000 08:11:11.000,225.963,-71.033,15182.231781
3 Jan 2000 08:12:11.000,225.456,-70.925,15261.986161
3 Jan 2000 08:13:11.000,224.969,-70.822,15342.737025
3 Jan 2000 08:14:11.000,224.501,-70.723,15424.443301
3 Jan 2000 08:15:11.000,224.052,-70.628,15507.064174
3 Jan 2000 08:16:11.000,223.621,-70.538,15590.559106
3 Jan 2000 08:17:11.000,223.207,-70.453,15674.887865
3 Jan 2000 08:18:11.000,222.810,-70.373,15760.010546
3 Jan 2000 08:19:11.000,222.429,-70.297,15845.887588
3 Jan 2000 08:20:11.000,222.064,-70.226,15932.479794
3 Jan 2000 08:21:11.000,221.715,-70.160,16019.748348
3 Jan 2000 08:22:11.000,221.380,-70.099,16107.654830
3 Jan 2000 08:22:52.967,221.155,-70.059,16169.499891

Interval Statistics
"Min Elevation",3 Jan 2000 07:27:56.826,276.010,-76.101,13254.944745
"Max Elevation",3 Jan 2000 06:33:11.788,332.813,-70.047,16189.000780
"Mean Elevation",,,-73.161,
"Min Range",3 Jan 2000 07:27:56.825,276.010,-76.101,13254.944745
"Max Range",3 Jan 2000 06:33:11.788,332.813,-70.047,16189.000780
"Mean Range",,,,14322.430834

"Time (UTCG)","Azimuth (deg)","Elevation (deg)","Range (km)"
3 Jan 2000 12:23:53.874,325.760,-70.063,16162.565482
3 Jan 2000 12:24:53.000,325.552,-70.124,16070.164437
3 Jan 2000 12:25:53.000,325.329,-70.192,15976.847105
3 Jan 2000 12:26:53.000,325.094,-70.265,15884.019388
3 Jan 2000 12:27:53.000,324.847,-70.344,15791.718452
3 Jan 2000 12:28:53.000,324.586,-70.429,15699.981953
3 Jan 2000 12:29:53.000,324.312,-70.520,15608.848018
3 Jan 2000 12:30:53.000,324.023,-70.616,15518.355248
3 Jan 2000 12:31:53.000,323.720,-70.718,15428.542700
3 Jan 2000 12:32:53.000,323.402,-70.826,15339.449877
3 Jan 2000 12:33:53.000,323.068,-70.940,15251.116716
3 Jan 2000 12:34:53.000,322.718,-71.059,15163.583575
3 Jan 2000 12:35:53.000,322.351,-71.185,15076.891209
3 Jan 2000 12:36:53.000,321.966,-71.316,14991.080761
3 Jan 2000 12:37:53.000,321.563,-71.453,14906.193735
3 Jan 2000 12:38:53.000,321.141,-71.595,14822.271975
3 Jan 2000 12:39:53.000,320.698,-71.743,14739.357641
3 Jan 2000 12:40:53.000,320.235,-71.897,14657.493181
3 Jan 2000 12:41:53.000,319.750,-72.056,14576.721303
3 Jan 2000 12:42:53.000,319.242,-72.221,14497.084944
3 Jan 2000 12:43:53.000,318.710,-72.391,14418.627234
3 Jan 2000 12:44:53.000,318.153,-72.566,14341.391459
3 Jan 2000 12:45:53.000,317.570,-72.746,14265.421026
3 Jan 2000 12:46:53.000,316.960,-72.930,14190.759417
3 Jan 2000 12:47:53.000,316.321,-73.120,14117.450148
3 Jan 2000 12:48:53.000,315.652,-73.313,14045.536718
3 Jan 2000 12:49:53.000,314.951,-73.511,13975.062564
3 Jan 2000 12:50:53.000,314.217,-73.713,13906.071008
3 Jan 2000 12:51:53.000,313.448,-73.919,13838.605198
3 Jan 2000 12:52:53.000,312.643,-74.127,13772.708057
3 Jan 2000 12:53:53.000,311.800,-74.339,13708.422207
3 Jan 2000 12:54:53.000,310.917,-74.554,13645.789953
3 Jan 2000 12:55:53.000,309.992,-74.770,13584.853153
3 Jan 2000 12:56:53.000,309.023,-74.989,13525.653194
3 Jan 2000 12:57:53.000,308.007,-75.209,13468.230913
3 Jan 2000 12:58:53.000,306.944,-75.430,13412.626527
3 Jan 2000 12:59:53.000,305.831,-75.651,13358.879558
3 Jan 2000 13:00:53.000,304.665,-75.871,13307.028765
3 Jan 2000 13:01:53.000,303.444,-76.091,13257.112064
3 Jan 2000 13:02:53.000,302.167,-76.310,13209.166453
3 Jan 2000 13:03:53.000,300.830,-76.526,13163.227940
3 Jan 2000 13:04:53.000,299.433,-76.740,13119.331463
3 Jan 2000 13:05:53.000,297.973,-76.950,13077.510811
3 Jan 2000 13:06:53.000,296.449,-77.155,13037.798556
3 Jan 2000 13:07:53.000,294.859,-77.355,13000.225970
3 Jan 2000 13:08:53.000,293.202,-77.549,12964.822957
3 Jan 2000 13:09:53.000,291.477,-77.736,12931.617964
3 Jan 2000 13:10:53.000,289.684,-77.915,12900.637957
3 Jan 2000 13:11:53.000,287.823,-78.085,12871.908290
3 Jan 2000 13:12:53.000,285.895,-78.246,12845.452678
3 Jan 2000 13:13:53.000,283.902,-78.395,12821.293130
3 Jan 2000 13:14:53.000,281.847,-78.533,12799.449885
3 Jan 2000 13:15:53.000,279.731,-78.659,12779.941360
3 Jan 2000 13:16:53.000,277.559,-78.772,12762.784101
3 Jan 2000 13:17:53.000,275.337,-78.870,12747.992733
3 Jan 2000 13:18:53.000,273.069,-78.953,12735.579925
3 Jan 2000 13:19:53.000,270.763,-79.022,12725.556350
3 Jan 2000 13:20:53.000,268.425,-79.074,12717.930656
3 Jan 2000 13:21:53.000,266.064,-79.110,12712.709444
3 Jan 2000 13:22:53.000,263.687,-79.130,12709.897241
3 Jan 2000 13:23:53.000,261.304,-79.132,12709.496513
3 Jan 2000 13:24:53.000,258.923,-79.118,12711.507621
3 Jan 2000 13:25:53.000,256.554,-79.088,12715.928847
3 Jan 2000 13:26:53.000,254.203,-79.041,12722.756394
3 Jan 2000 13:27:53.000,251.880,-78.978,12731.984394
3 Jan 2000 13:28:53.000,249.592,-78.899,12743.604934
3 Jan 2000 13:29:53.000,247.346,-78.806,12757.608070
3 Jan 2000 13:30:53.000,245.147,-78.698,12773.981867
3 Jan 2000 13:31:53.000,243.001,-78.577,12792.712426
3 Jan 2000 13:32:53.000,240.912,-78.443,12813.783929
3 Jan 2000 13:33:53.000,238.884,-78.297,12837.178684
3 Jan 2000 13:34:53.000,236.919,-78.140,12862.877174
3 Jan 2000 13:35:53.000,235.019,-77.973,12890.858109
3 Jan 2000 13:36:53.000,233.185,-77.796,12921.098498
3 Jan 2000 13:37:53.000,231.418,-77.612,12953.573691
3 Jan 2000 13:38:53.000,229.717,-77.420,12988.257458
3 Jan 2000 13:39:53.000,228.082,-77.222,13025.122054
3 Jan 2000 13:40:53.000,226.511,-77.018,13064.138288
3 Jan 2000 13:41:53.000,225.004,-76.810,13105.275600
3 Jan 2000 13:42:53.000,223.559,-76.597,13148.502130
3 Jan 2000 13:43:53.000,222.174,-76.382,13193.784797
3 Jan 2000 13:44:53.000,220.847,-76.164,13241.089375
3 Jan 2000 13:45:53.000,219.576,-75.944,13290.380570
3 Jan 2000 13:46:53.000,218.359,-75.723,13341.622095
3 Jan 2000 13:47:53.000,217.193,-75.502,13394.776750
3 Jan 2000 13:48:53.000,216.077,-75.281,13449.806495
3 Jan 2000 13:49:53.000,215.008,-75.061,13506.672528
3 Jan 2000 13:50:53.000,213.984,-74.842,13565.335357
3 Jan 2000 13:51:53.000,213.003,-74.624,13625.754877
3 Jan 2000 13:52:53.000,212.063,-74.409,13687.890434
3 Jan 2000 13:53:53.000,211.162,-74.196,13751.700903
3 Jan 2000 13:54:53.000,210.298,-73.986,13817.144747
3 Jan 2000 13:55:53.000,209.469,-73.779,13884.180088
3 Jan 2000 13:56:53.000,208.674,-73.576,13952.764769
3 Jan 2000 13:57:53.000,207.911,-73.376,14022.856413
3 Jan 2000 13:58:53.000,207.179,-73.181,14094.412482
3 Jan 2000 13:59:53.000,206.475,-72.990,14167.390332
3 Jan 2000 14:00:53.000,205.798,-72.803,14241.747266
3 Jan 2000 14:01:53.000,205.147,-72.621,14317.440585
3 Jan 2000 14:02:53.000,204.522,-72.445,14394.427633
3 Jan 2000 14:03:53.000,203.919,-72.273,14472.665846
3 Jan 2000 14:04:53.000,203.339,-72.106,14552.112790
3 Jan 2000 14:05:53.000,202.781,-71.945,14632.726202
3 Jan 2000 14:06:53.000,202.242,-71.789,14714.464030
3 Jan 2000 14:07:53.000,201.723,-71.639,14797.284462
3 Jan 2000 14:08:53.000,201.222,-71.494,14881.145963
3 Jan 2000 14:09:53.000,200.738,-71.355,14966.007301
3 Jan 2000 14:10:53.000,200.271,-71.222,15051.827577
3 Jan 2000 14:11:53.000,199.820,-71.095,15138.566247
3 Jan 2000 14:12:53.000,199.384,-70.973,15226.183150
3 Jan 2000 14:13:53.000,198.963,-70.857,15314.638521
3 Jan 2000 14:14:53.000,198.555,-70.747,15403.893018
3 Jan 2000 14:15:53.000,198.160,-70.643,15493.907736
3 Jan 2000 14:16:53.000,197.778,-70.545,15584.644214
3 Jan 2000 14:17:53.000,197.407,-70.452,15676.064464
3 Jan 2000 14:18:53.000,197.048,-70.365,15768.130971
3 Jan 2000 14:19:53.000,196.700,-70.285,15860.806707
3 Jan 2000 14:20:53.000,196.362,-70.209,15954.055139
3 Jan 2000 14:21:53.000,196.034,-70.140,16047.840238
3 Jan 2000 14:22:53.000,195.716,-70.076,16142.126482
3 Jan 2000 14:23:23.205,195.559,-70.046,16189.771020

Interval Statistics
"Min Elevation",3 Jan 2000 13:23:32.977,262.100,-79.133,12709.362081
"Max Elevation",3 Jan 2000 14:23:23.205,195.559,-70.046,16189.771020
"Mean Elevation",,,-74.452,
"Min Range",3 Jan 2000 13:23:32.969,262.100,-79.133,12709.362081
"Max Range",3 Jan 2000 14:23:23.205,195.559,-70.046,16189.771020
"Mean Range",,,,13991.881322

"Time (UTCG)","Azimuth (deg)","Elevation (deg)","Range (km)"
3 Jan 2000 19:16:39.264,33.840,-70.064,16162.254540
3 Jan 2000 19:17:39.000,34.203,-70.105,16098.787643
3 Jan 2000 19:18:39.000,34.576,-70.149,16035.618099
3 Jan 2000 19:19:39.000,34.956,-70.195,15973.041584
3 Jan 2000 19:20:39.000,35.344,-70.243,15911.071784
3 Jan 2000 19:21:39.000,35.741,-70.294,15849.722298
3 Jan 2000 19:22:39.000,36.145,-70.347,15789.006631
3 Jan 2000 19:23:39.000,36.559,-70.402,15728.938184
3 Jan 2000 19:24:39.000,36.980,-70.459,15669.530254
3 Jan 2000 19:25:39.000,37.411,-70.518,15610.796024
3 Jan 2000 19:26:39.000,37.850,-70.578,15552.748556
3 Jan 2000 19:27:39.000,38.298,-70.641,15495.400786
3 Jan 2000 19:28:39.000,38.756,-70.706,15438.765518
3 Jan 2000 19:29:39.000,39.223,-70.772,15382.855415
3 Jan 2000 19:30:39.000,39.700,-70.841,15327.682992
3 Jan 2000 19:31:39.000,40.186,-70.910,15273.260615
3 Jan 2000 19:32:39.000,40.682,-70.982,15219.600483
3 Jan 2000 19:33:39.000,41.189,-71.055,15166.714632
3 Jan 2000 19:34:39.000,41.705,-71.129,15114.614921
3 Jan 2000 19:35:39.000,42.232,-71.205,15063.313028
3 Jan 2000 19:36:39.000,42.769,-71.282,15012.820440
3 Jan 2000 19:37:39.000,43.318,-71.360,14963.148447
3 Jan 2000 19:38:39.000,43.877,-71.439,14914.308138
3 Jan 2000 19:39:39.000,44.447,-71.519,14866.310387
3 Jan 2000 19:40:39.000,45.028,-71.601,14819.165852
3 Jan 2000 19:41:39.000,45.620,-71.683,14772.884964
3 Jan 2000 19:42:39.000,46.224,-71.765,14727.477921
3 Jan 2000 19:43:39.000,46.840,-71.848,14682.954680
3 Jan 2000 19:44:39.000,47.467,-71.932,14639.324951
3 Jan 2000 19:45:39.000,48.106,-72.016,14596.598189
3 Jan 2000 19:46:39.000,48.757,-72.101,14554.783589
3 Jan 2000 19:47:39.000,49.420,-72.185,14513.890075
3 Jan 2000 19:48:39.000,50.095,-72.270,14473.926296
3 Jan 2000 19:49:39.000,50.782,-72.355,14434.900622
3 Jan 2000 19:50:39.000,51.482,-72.439,14396.821130
3 Jan 2000 19:51:39.000,52.193,-72.523,14359.695606
3 Jan 2000 19:52:39.000,52.917,-72.607,14323.531533
3 Jan 2000 19:53:39.000,53.654,-72.690,14288.336087
3 Jan 2000 19:54:39.000,54.402,-72.773,14254.116145
3 Jan 2000 19:55:39.000,55.163,-72.855,14220.878228
3 Jan 2000 19:56:39.000,55.936,-72.936,14188.628570
3 Jan 2000 19:57:39.000,56.721,-73.015,14157.373065
3 Jan 2000 19:58:39.000,57.519,-73.094,14127.117275
3 Jan 2000 19:59:39.000,58.328,-73.172,14097.866421
3 Jan 2000 20:00:39.000,59.149,-73.247,14069.625384
3 Jan 2000 20:01:39.000,59.982,-73.322,14042.398701
3 Jan 2000 20:02:39.000,60.826,-73.395,14016.190558
3 Jan 2000 20:03:39.000,61.682,-73.466,13991.004787
3 Jan 2000 20:04:39.000,62.549,-73.535,13966.844869
3 Jan 2000 20:05:39.000,63.426,-73.602,13943.713923
