Satellite-POLLEO11-Sensor-Sensor9-To-Place-POL_Mid_AER.csv

"Time (UTCG)","Azimuth (deg)","Elevation (deg)","Range (km)"
1 Jan 2000 17:25:29.253,339.118,-31.888,2772.447005
1 Jan 2000 17:26:29.000,336.011,-33.549,2434.013387
1 Jan 2000 17:27:29.000,331.611,-36.164,2110.975066
1 Jan 2000 17:28:29.000,325.080,-40.007,1815.215652
1 Jan 2000 17:29:29.000,314.823,-45.194,1563.592330
1 Jan 2000 17:30:29.000,298.157,-50.959,1381.526009
1 Jan 2000 17:31:29.000,273.266,-54.522,1299.335307
1 Jan 2000 17:32:29.000,246.251,-52.839,1335.889269
1 Jan 2000 17:33:29.000,226.309,-47.483,1482.335999
1 Jan 2000 17:34:29.000,213.900,-41.888,1710.284434
1 Jan 2000 17:35:29.000,206.139,-37.506,1991.337115
1 Jan 2000 17:36:29.000,201.014,-34.442,2305.400091
1 Jan 2000 17:37:29.000,197.437,-32.437,2639.858682
1 Jan 2000 17:37:56.213,196.157,-31.802,2796.058547

Interval Statistics
"Min Elevation",1 Jan 2000 17:31:40.753,267.777,-54.636,1296.994545
"Max Elevation",1 Jan 2000 17:37:56.213,196.157,-31.802,2796.058547
"Mean Elevation",,,-40.763,
"Min Range",1 Jan 2000 17:31:40.753,267.777,-54.636,1296.994545
"Max Range",1 Jan 2000 17:37:56.213,196.157,-31.802,2796.058547
"Mean Range",,,,1974.162064

"Time (UTCG)","Azimuth (deg)","Elevation (deg)","Range (km)"
1 Jan 2000 19:13:43.850,12.673,-31.858,2780.647698
1 Jan 2000 19:14:43.000,15.042,-33.509,2440.494497
1 Jan 2000 19:15:43.000,18.431,-36.184,2108.977032
1 Jan 2000 19:16:43.000,23.523,-40.261,1799.923422
1 Jan 2000 19:17:43.000,31.810,-46.141,1528.285459
1 Jan 2000 19:18:43.000,46.583,-53.619,1318.480903
1 Jan 2000 19:19:43.000,73.288,-59.924,1204.044397
1 Jan 2000 19:20:43.000,107.996,-59.362,1212.607852
1 Jan 2000 19:21:43.000,132.868,-52.586,1341.722597
1 Jan 2000 19:22:43.000,146.469,-45.252,1561.360819
1 Jan 2000 19:23:43.000,154.179,-39.630,1838.750521
1 Jan 2000 19:24:43.000,158.966,-35.768,2150.901967
1 Jan 2000 19:25:43.000,162.174,-33.247,2483.882031
1 Jan 2000 19:26:37.527,164.271,-31.797,2797.524665

Interval Statistics
"Min Elevation",1 Jan 2000 19:20:08.985,88.459,-60.751,1191.930873
"Max Elevation",1 Jan 2000 19:26:37.527,164.271,-31.797,2797.524665
"Mean Elevation",,,-42.795,
"Min Range",1 Jan 2000 19:20:08.985,88.459,-60.751,1191.930873
"Max Range",1 Jan 2000 19:26:37.527,164.271,-31.797,2797.524665
"Mean Range",,,,1897.685990

"Time (UTCG)","Azimuth (deg)","Elevation (deg)","Range (km)"
1 Jan 2000 21:04:16.224,32.744,-31.819,2791.432603
1 Jan 2000 21:05:16.000,37.835,-33.131,2504.156371
1 Jan 2000 21:06:16.000,44.533,-34.939,2243.173083
1 Jan 2000 21:07:16.000,53.368,-37.147,2021.217851
1 Jan 2000 21:08:16.000,64.842,-39.406,1853.174467
1 Jan 2000 21:09:16.000,78.927,-41.041,1755.174607
1 Jan 2000 21:10:16.000,94.433,-41.331,1739.400831
1 Jan 2000 21:11:16.000,109.248,-40.126,1808.028734
1 Jan 2000 21:12:16.000,121.733,-38.005,1951.950263
1 Jan 2000 21:13:16.000,131.491,-35.722,2155.711499
1 Jan 2000 21:14:16.000,138.904,-33.745,2403.561763
1 Jan 2000 21:15:16.000,144.533,-32.247,2682.612291
1 Jan 2000 21:15:39.089,146.331,-31.802,2796.193659

Interval Statistics
"Min Elevation",1 Jan 2000 21:09:57.072,89.511,-41.411,1735.122716
"Max Elevation",1 Jan 2000 21:15:39.089,146.331,-31.802,2796.193659
"Mean Elevation",,,-36.189,
"Min Range",1 Jan 2000 21:09:57.072,89.511,-41.411,1735.122716
"Max Range",1 Jan 2000 21:15:39.089,146.331,-31.802,2796.193659
"Mean Range",,,,2208.137540

"Time (UTCG)","Azimuth (deg)","Elevation (deg)","Range (km)"
1 Jan 2000 22:54:25.793,31.605,-31.800,2796.758121
1 Jan 2000 22:55:25.000,36.318,-33.135,2503.445564
1 Jan 2000 22:56:25.000,42.641,-35.041,2231.150732
1 Jan 2000 22:57:25.000,51.131,-37.457,1995.306062
1 Jan 2000 22:58:25.000,62.460,-40.074,1811.145413
1 Jan 2000 22:59:25.000,76.879,-42.165,1696.304696
1 Jan 2000 23:00:25.000,93.331,-42.800,1665.622139
1 Jan 2000 23:01:25.000,109.369,-41.627,1723.735223
1 Jan 2000 23:02:25.000,122.865,-39.268,1862.215391
1 Jan 2000 23:03:25.000,133.254,-36.655,2064.599513
1 Jan 2000 23:04:25.000,141.003,-34.379,2313.653690
1 Jan 2000 23:05:25.000,146.791,-32.649,2595.323839
1 Jan 2000 23:06:03.749,149.759,-31.825,2789.626569

Interval Statistics
"Min Elevation",1 Jan 2000 23:00:15.624,90.718,-42.823,1664.521581
"Max Elevation",1 Jan 2000 22:54:25.793,31.605,-31.800,2796.758121
"Mean Elevation",,,-36.837,
"Min Range",1 Jan 2000 23:00:15.624,90.718,-42.823,1664.521581
"Max Range",1 Jan 2000 22:54:25.793,31.605,-31.800,2796.758121
"Mean Range",,,,2157.606689

"Time (UTCG)","Azimuth (deg)","Elevation (deg)","Range (km)"
2 Jan 2000 00:43:16.113,10.488,-31.797,2797.422247
2 Jan 2000 00:44:16.000,11.950,-33.482,2444.843531
2 Jan 2000 00:45:16.000,14.050,-36.252,2102.376188
2 Jan 2000 00:46:16.000,17.278,-40.628,1778.437007
2 Jan 2000 00:47:16.000,22.790,-47.351,1486.662661
2 Jan 2000 00:48:16.000,33.871,-57.041,1251.122002
2 Jan 2000 00:49:16.000,61.544,-67.800,1109.312414
2 Jan 2000 00:50:16.000,114.965,-68.960,1098.750244
2 Jan 2000 00:51:16.000,146.923,-58.708,1222.941613
2 Jan 2000 00:52:16.000,159.470,-48.599,1447.336446
2 Jan 2000 00:53:16.000,165.525,-41.453,1732.919685
2 Jan 2000 00:54:16.000,169.011,-36.776,2053.632338
2 Jan 2000 00:55:16.000,171.258,-33.805,2394.593926
2 Jan 2000 00:56:16.000,172.821,-31.983,2747.386595
2 Jan 2000 00:56:21.224,172.934,-31.866,2778.484619

Interval Statistics
"Min Elevation",2 Jan 2000 00:49:50.490,91.704,-70.503,1085.851723
"Max Elevation",2 Jan 2000 00:43:16.113,10.488,-31.797,2797.422247
"Mean Elevation",,,-44.433,
"Min Range",2 Jan 2000 00:49:50.490,91.704,-70.503,1085.851723
"Max Range",2 Jan 2000 00:43:16.113,10.488,-31.797,2797.422247
"Mean Range",,,,1896.414768

"Time (UTCG)","Azimuth (deg)","Elevation (deg)","Range (km)"
2 Jan 2000 02:32:06.238,335.962,-31.805,2795.356346
2 Jan 2000 02:33:06.000,331.673,-33.290,2476.643132
2 Jan 2000 02:34:06.000,325.811,-35.499,2179.442564
2 Jan 2000 02:35:06.000,317.607,-38.477,1916.912442
2 Jan 2000 02:36:06.000,305.982,-41.968,1706.188185
2 Jan 2000 02:37:06.000,290.051,-45.053,1569.088535
2 Jan 2000 02:38:06.000,270.745,-46.203,1526.056686
2 Jan 2000 02:39:06.000,251.786,-44.655,1584.877372
2 Jan 2000 02:40:06.000,236.558,-41.413,1735.004610
2 Jan 2000 02:41:06.000,225.567,-37.965,1955.049521
2 Jan 2000 02:42:06.000,217.819,-35.105,2223.700976
2 Jan 2000 02:43:06.000,212.273,-33.016,2524.704213
2 Jan 2000 02:43:52.328,209.023,-31.889,2772.073272

Interval Statistics
"Min Elevation",2 Jan 2000 02:38:01.270,272.314,-46.212,1525.734607
"Max Elevation",2 Jan 2000 02:32:06.238,335.962,-31.805,2795.356346
"Mean Elevation",,,-38.180,
"Min Range",2 Jan 2000 02:38:01.270,272.314,-46.212,1525.734607
"Max Range",2 Jan 2000 02:32:06.238,335.962,-31.805,2795.356346
"Mean Range",,,,2074.238297

"Time (UTCG)","Azimuth (deg)","Elevation (deg)","Range (km)"
2 Jan 2000 16:12:42.966,313.059,-31.885,2773.204009
2 Jan 2000 16:13:42.000,306.559,-32.982,2530.879842
2 Jan 2000 16:14:42.000,298.331,-34.302,2323.960805
2 Jan 2000 16:15:42.000,288.306,-35.597,2168.924987
2 Jan 2000 16:16:42.000,276.686,-36.508,2078.075121
2 Jan 2000 16:17:42.000,264.229,-36.702,2060.318904
2 Jan 2000 16:18:42.000,252.078,-36.096,2117.626342
2 Jan 2000 16:19:42.000,241.226,-34.931,2244.135097
2 Jan 2000 16:20:42.000,232.131,-33.583,2428.722772
2 Jan 2000 16:21:42.000,224.771,-32.351,2658.814207
2 Jan 2000 16:22:13.357,221.532,-31.812,2793.279603

Interval Statistics
"Min Elevation",2 Jan 2000 16:17:26.094,267.551,-36.731,2057.648317
"Max Elevation",2 Jan 2000 16:22:13.357,221.532,-31.812,2793.279603
"Mean Elevation",,,-34.250,
"Min Range",2 Jan 2000 16:17:26.094,267.551,-36.731,2057.648317
"Max Range",2 Jan 2000 16:22:13.357,221.532,-31.812,2793.279603
"Mean Range",,,,2379.812881

"Time (UTCG)","Azimuth (deg)","Elevation (deg)","Range (km)"
2 Jan 2000 17:58:31.446,355.375,-31.879,2775.021078
2 Jan 2000 17:59:31.000,354.950,-33.650,2418.186390
2 Jan 2000 18:00:31.000,354.321,-36.611,2068.555191
2 Jan 2000 18:01:31.000,353.322,-41.389,1736.325360
2 Jan 2000 18:02:31.000,351.528,-49.010,1435.101661
2 Jan 2000 18:03:31.000,347.438,-60.885,1190.010663
2 Jan 2000 18:04:31.000,330.160,-77.393,1042.463204
2 Jan 2000 18:05:31.000,210.445,-78.953,1035.542044
2 Jan 2000 18:06:31.000,189.265,-62.225,1171.722831
2 Jan 2000 18:07:31.000,184.758,-49.901,1409.746377
2 Jan 2000 18:08:31.000,182.834,-41.954,1706.908284
2 Jan 2000 18:09:31.000,181.770,-36.967,2036.707166
2 Jan 2000 18:10:31.000,181.093,-33.871,2384.755147
2 Jan 2000 18:11:31.000,180.624,-31.999,2743.156770
2 Jan 2000 18:11:39.922,180.567,-31.799,2797.030124

Interval Statistics
"Min Elevation",2 Jan 2000 18:05:03.737,268.032,-84.013,1019.711510
"Max Elevation",2 Jan 2000 18:11:39.922,180.567,-31.799,2797.030124
"Mean Elevation",,,-46.566,
"Min Range",2 Jan 2000 18:05:03.737,268.030,-84.013,1019.711510
"Max Range",2 Jan 2000 18:11:39.922,180.567,-31.799,2797.030124
"Mean Range",,,,1863.415486

"Time (UTCG)","Azimuth (deg)","Elevation (deg)","Range (km)"
2 Jan 2000 19:48:04.575,23.551,-31.839,2785.723234
2 Jan 2000 19:49:04.000,27.498,-33.329,2470.052968
2 Jan 2000 19:50:04.000,32.926,-35.570,2171.776238
2 Jan 2000 19:51:04.000,40.563,-38.646,1904.836543
2 Jan 2000 19:52:04.000,51.542,-42.391,1685.204259
2 Jan 2000 19:53:04.000,67.057,-45.980,1534.125967
2 Jan 2000 19:54:04.000,86.767,-47.762,1473.328145
2 Jan 2000 19:55:04.000,106.970,-46.548,1513.864395
2 Jan 2000 19:56:04.000,123.451,-43.179,1648.098476
2 Jan 2000 19:57:04.000,135.257,-39.372,1855.384315
2 Jan 2000 19:58:04.000,143.457,-36.135,2113.738982
2 Jan 2000 19:59:04.000,149.247,-33.729,2406.037598
2 Jan 2000 20:00:04.000,153.459,-32.089,2720.537515
2 Jan 2000 20:00:18.207,154.288,-31.798,2797.348398

Interval Statistics
"Min Elevation",2 Jan 2000 19:54:10.093,88.882,-47.778,1472.796361
"Max Elevation",2 Jan 2000 20:00:18.207,154.288,-31.798,2797.348398
"Mean Elevation",,,-38.455,
"Min Range",2 Jan 2000 19:54:10.091,88.882,-47.778,1472.796360
"Max Range",2 Jan 2000 20:00:18.207,154.288,-31.798,2797.348398
"Mean Range",,,,2077.146931

"Time (UTCG)","Azimuth (deg)","Elevation (deg)","Range (km)"
2 Jan 2000 21:38:45.867,35.196,-31.807,2794.573185
2 Jan 2000 21:39:45.000,40.438,-33.053,2517.956036
2 Jan 2000 21:40:45.000,47.332,-34.752,2265.887685
2 Jan 2000 21:41:45.000,56.292,-36.770,2054.160994
2 Jan 2000 21:42:45.000,67.690,-38.755,1897.117938
2 Jan 2000 21:43:45.000,81.348,-40.100,1809.612486
2 Jan 2000 21:44:45.000,96.084,-40.224,1802.097959
2 Jan 2000 21:45:45.000,110.059,-39.069,1875.562059
2 Jan 2000 21:46:45.000,121.909,-37.150,2020.980652
2 Jan 2000 21:47:45.000,131.296,-35.103,2223.876471
2 Jan 2000 21:48:45.000,138.531,-33.332,2469.565355
2 Jan 2000 21:49:45.000,144.096,-31.989,2745.911199
2 Jan 2000 21:49:54.972,144.891,-31.809,2794.135529

Interval Statistics
"Min Elevation",2 Jan 2000 21:44:20.475,90.046,-40.341,1795.190178
"Max Elevation",2 Jan 2000 21:38:45.867,35.196,-31.807,2794.573185
"Mean Elevation",,,-35.686,
"Min Range",2 Jan 2000 21:44:20.475,90.046,-40.341,1795.190178
"Max Range",2 Jan 2000 21:38:45.867,35.196,-31.807,2794.573185
"Mean Range",,,,2251.649042

"Time (UTCG)","Azimuth (deg)","Elevation (deg)","Range (km)"
2 Jan 2000 23:28:15.916,24.206,-31.797,2797.412314
2 Jan 2000 23:29:15.000,27.837,-33.276,2478.975581
2 Jan 2000 23:30:15.000,32.886,-35.547,2174.223411
2 Jan 2000 23:31:15.000,40.066,-38.735,1898.519647
2 Jan 2000 23:32:15.000,50.586,-42.760,1667.505362
2 Jan 2000 23:33:15.000,65.961,-46.866,1502.906579
2 Jan 2000 23:34:15.000,86.417,-49.236,1428.544827
2 Jan 2000 23:35:15.000,108.129,-48.230,1458.601034
2 Jan 2000 23:36:15.000,125.868,-44.599,1587.124943
2 Jan 2000 23:37:15.000,138.319,-40.382,1792.761487
2 Jan 2000 23:38:15.000,146.773,-36.795,2051.953148
2 Jan 2000 23:39:15.000,152.637,-34.139,2346.367023
2 Jan 2000 23:40:15.000,156.852,-32.330,2663.589569
2 Jan 2000 23:40:37.167,158.114,-31.843,2784.842234

Interval Statistics
"Min Elevation",2 Jan 2000 23:34:27.925,91.196,-49.322,1426.066925
"Max Elevation",2 Jan 2000 23:28:15.916,24.206,-31.797,2797.412314
"Mean Elevation",,,-39.038,
"Min Range",2 Jan 2000 23:34:27.924,91.196,-49.322,1426.066925
"Max Range",2 Jan 2000 23:28:15.916,24.206,-31.797,2797.412314
"Mean Range",,,,2045.237654

"Time (UTCG)","Azimuth (deg)","Elevation (deg)","Range (km)"
3 Jan 2000 01:16:53.278,356.950,-31.799,2796.926748
3 Jan 2000 01:17:53.000,356.077,-33.512,2439.902875
3 Jan 2000 01:18:53.000,354.822,-36.369,2091.134507
3 Jan 2000 01:19:53.000,352.877,-40.959,1759.754118
3 Jan 2000 01:20:53.000,349.472,-48.212,1459.169882
3 Jan 2000 01:21:53.000,342.101,-59.280,1213.881420
3 Jan 2000 01:22:53.000,317.513,-73.548,1063.961876
3 Jan 2000 01:23:53.000,235.933,-75.609,1051.628746
3 Jan 2000 01:24:53.000,204.043,-61.513,1181.267624
3 Jan 2000 01:25:53.000,195.398,-49.746,1414.043590
3 Jan 2000 01:26:53.000,191.613,-41.938,1707.726706
3 Jan 2000 01:27:53.000,189.518,-36.983,2035.386311
3 Jan 2000 01:28:53.000,188.199,-33.888,2382.192560
3 Jan 2000 01:29:53.000,187.301,-32.012,2739.953936
3 Jan 2000 01:29:58.722,187.230,-31.881,2774.450122

Interval Statistics
"Min Elevation",3 Jan 2000 01:23:27.960,272.018,-78.264,1038.474838
"Max Elevation",3 Jan 2000 01:16:53.278,356.950,-31.799,2796.926748
"Mean Elevation",,,-45.817,
"Min Range",3 Jan 2000 01:23:27.960,272.018,-78.264,1038.474838
"Max Range",3 Jan 2000 01:16:53.278,356.950,-31.799,2796.926748
"Mean Range",,,,1874.092068

"Time (UTCG)","Azimuth (deg)","Elevation (deg)","Range (km)"
3 Jan 2000 03:06:32.740,314.124,-31.814,2792.652719
3 Jan 2000 03:07:32.000,307.235,-32.787,2567.913180
3 Jan 2000 03:08:32.000,298.766,-33.882,2383.065349
3 Jan 2000 03:09:32.000,288.780,-34.863,2252.368074
3 Jan 2000 03:10:32.000,277.626,-35.439,2185.964774
3 Jan 2000 03:11:32.000,266.060,-35.404,2189.870986
3 Jan 2000 03:12:32.000,255.017,-34.770,2263.636020
3 Jan 2000 03:13:32.000,245.213,-33.765,2400.521483
3 Jan 2000 03:14:32.000,236.944,-32.675,2590.047045
3 Jan 2000 03:15:20.467,231.363,-31.883,2773.871691

Interval Statistics
"Min Elevation",3 Jan 2000 03:10:58.709,272.472,-35.504,2178.885399
"Max Elevation",3 Jan 2000 03:06:32.740,314.124,-31.814,2792.652719
"Mean Elevation",,,-33.728,
"Min Range",3 Jan 2000 03:10:58.708,272.472,-35.504,2178.885399
"Max Range",3 Jan 2000 03:06:32.740,314.124,-31.814,2792.652719
"Mean Range",,,,2439.991132

"Time (UTCG)","Azimuth (deg)","Elevation (deg)","Range (km)"
3 Jan 2000 16:44:26.607,334.215,-31.889,2772.149775
3 Jan 2000 16:45:26.000,330.379,-33.464,2447.692374
3 Jan 2000 16:46:26.000,325.013,-35.870,2140.381148
3 Jan 2000 16:47:26.000,317.301,-39.224,1865.117582
3 Jan 2000 16:48:26.000,305.909,-43.373,1639.322293
3 Jan 2000 16:49:26.000,289.324,-47.350,1486.670109
3 Jan 2000 16:50:26.000,267.942,-49.138,1431.373958
3 Jan 2000 16:51:26.000,246.496,-47.414,1484.574158
3 Jan 2000 16:52:26.000,229.788,-43.457,1635.586095
3 Jan 2000 16:53:26.000,218.291,-39.297,1860.338247
3 Jan 2000 16:54:26.000,210.501,-35.922,2135.067692
3 Jan 2000 16:55:26.000,205.073,-33.498,2442.221028
3 Jan 2000 16:56:26.000,201.150,-31.897,2770.185042
3 Jan 2000 16:56:30.546,200.898,-31.804,2795.650853

Interval Statistics
"Min Elevation",3 Jan 2000 16:50:26.594,267.720,-49.138,1431.368546
"Max Elevation",3 Jan 2000 16:56:30.546,200.898,-31.804,2795.650853
"Mean Elevation",,,-38.828,
"Min Range",3 Jan 2000 16:50:26.593,267.720,-49.138,1431.368546
"Max Range",3 Jan 2000 16:56:30.546,200.898,-31.804,2795.650853
"Mean Range",,,,2064.737883

"Time (UTCG)","Azimuth (deg)","Elevation (deg)","Range (km)"
3 Jan 2000 18:32:15.272,9.290,-31.863,2779.294534
3 Jan 2000 18:33:15.000,11.157,-33.573,2430.285634
3 Jan 2000 18:34:15.000,13.826,-36.363,2091.764314
3 Jan 2000 18:35:15.000,17.900,-40.711,1773.670526
3 Jan 2000 18:36:15.000,24.761,-47.236,1490.468287
3 Jan 2000 18:37:15.000,38.023,-56.172,1266.943174
3 Jan 2000 18:38:15.000,66.817,-64.864,1139.618030
3 Jan 2000 18:39:15.000,111.018,-64.695,1141.529915
3 Jan 2000 18:40:15.000,139.205,-55.902,1272.020895
3 Jan 2000 18:41:15.000,152.185,-47.027,1497.446223
3 Jan 2000 18:42:15.000,158.923,-40.575,1781.506037
3 Jan 2000 18:43:15.000,162.929,-36.279,2099.767517
3 Jan 2000 18:44:15.000,165.551,-33.524,2438.001071
3 Jan 2000 18:45:15.000,167.385,-31.831,2788.005384
3 Jan 2000 18:45:16.605,167.427,-31.797,2797.481548

Interval Statistics
"Min Elevation",3 Jan 2000 18:38:44.157,88.357,-66.371,1123.396556
"Max Elevation",3 Jan 2000 18:45:16.605,167.427,-31.797,2797.481548
"Mean Elevation",,,-43.494,
"Min Range",3 Jan 2000 18:38:44.157,88.357,-66.371,1123.396556
"Max Range",3 Jan 2000 18:45:16.605,167.427,-31.797,2797.481548
"Mean Range",,,,1919.186873

"Time (UTCG)","Azimuth (deg)","Elevation (deg)","Range (km)"
3 Jan 2000 20:22:39.284,31.306,-31.823,2790.353307
3 Jan 2000 20:23:39.000,36.234,-33.164,2498.317854
3 Jan 2000 20:24:39.000,42.765,-35.040,2231.193512
3 Jan 2000 20:25:39.000,51.468,-37.376,2001.992753
3 Jan 2000 20:26:39.000,62.937,-39.834,1825.888704
3 Jan 2000 20:27:39.000,77.278,-41.701,1719.875627
3 Jan 2000 20:28:39.000,93.332,-42.142,1697.462448
3 Jan 2000 20:29:39.000,108.787,-40.920,1761.878079
3 Jan 2000 20:30:39.000,121.768,-38.656,1904.109593
3 Jan 2000 20:31:39.000,131.816,-36.194,2108.037646
3 Jan 2000 20:32:39.000,139.369,-34.062,2357.118723
3 Jan 2000 20:33:39.000,145.052,-32.446,2637.890477
3 Jan 2000 20:34:10.901,147.499,-31.800,2796.563038

Interval Statistics
"Min Elevation",3 Jan 2000 20:28:24.341,89.370,-42.195,1694.827152
"Max Elevation",3 Jan 2000 20:34:10.901,147.499,-31.800,2796.563038
"Mean Elevation",,,-36.551,
"Min Range",3 Jan 2000 20:28:24.341,89.370,-42.195,1694.827152
"Max Range",3 Jan 2000 20:34:10.901,147.499,-31.800,2796.563038
"Mean Range",,,,2179.283212

"Time (UTCG)","Azimuth (deg)","Elevation (deg)","Range (km)"
3 Jan 2000 22:12:58.474,32.967,-31.801,2796.419519
3 Jan 2000 22:13:58.000,37.901,-33.113,2507.210566
3 Jan 2000 22:14:58.000,44.442,-34.949,2242.017389
3 Jan 2000 22:15:58.000,53.126,-37.224,2014.723082
3 Jan 2000 22:16:58.000,64.516,-39.606,1840.313199
3 Jan 2000 22:17:58.000,78.686,-41.405,1735.472387
3 Jan 2000 22:18:58.000,94.503,-41.827,1713.409840
3 Jan 2000 22:19:58.000,109.748,-40.648,1777.312749
3 Jan 2000 22:20:58.000,122.611,-38.456,1918.452033
3 Jan 2000 22:21:58.000,132.623,-36.061,2121.096348
3 Jan 2000 22:22:58.000,140.185,-33.979,2368.981866
3 Jan 2000 22:23:58.000,145.898,-32.396,2648.780494
3 Jan 2000 22:24:26.671,148.129,-31.821,2790.767626

Interval Statistics
"Min Elevation",3 Jan 2000 22:18:43.261,90.579,-41.878,1710.773121
"Max Elevation",3 Jan 2000 22:12:58.474,32.967,-31.801,2796.419519
"Mean Elevation",,,-36.406,
"Min Range",3 Jan 2000 22:18:43.261,90.579,-41.878,1710.773121
"Max Range",3 Jan 2000 22:12:58.474,32.967,-31.801,2796.419519
"Mean Range",,,,2190.381315

"Time (UTCG)","Azimuth (deg)","Elevation (deg)","Range (km)"
4 Jan 2000 00:01:55.304,13.755,-31.797,2797.509570
4 Jan 2000 00:02:55.000,15.760,-33.444,2450.957744
4 Jan 2000 00:03:55.000,18.624,-36.125,2114.726752
4 Jan 2000 00:04:55.000,22.965,-40.278,1798.875566
4 Jan 2000 00:05:55.000,30.158,-46.441,1517.604560
4 Jan 2000 00:06:55.000,43.566,-54.736,1294.934235
4 Jan 2000 00:07:55.000,70.660,-62.672,1165.935703
4 Jan 2000 00:08:55.000,110.793,-62.922,1162.761240
4 Jan 2000 00:09:55.000,138.754,-55.160,1286.423176
4 Jan 2000 00:10:55.000,152.619,-46.784,1505.720706
4 Jan 2000 00:11:55.000,160.019,-40.510,1785.242642
4 Jan 2000 00:12:55.000,164.471,-36.273,2100.403888
4 Jan 2000 00:13:55.000,167.406,-33.533,2436.620048
4 Jan 2000 00:14:54.047,169.445,-31.861,2779.789273

Interval Statistics
"Min Elevation",4 Jan 2000 00:08:26.431,91.606,-64.175,1147.531054
"Max Elevation",4 Jan 2000 00:01:55.304,13.755,-31.797,2797.509570
"Mean Elevation",,,-43.753,
"Min Range",4 Jan 2000 00:08:26.431,91.606,-64.175,1147.531054
"Max Range",4 Jan 2000 00:01:55.304,13.755,-31.797,2797.509570
"Mean Range",,,,1871.250365

"Time (UTCG)","Azimuth (deg)","Elevation (deg)","Range (km)"
4 Jan 2000 01:50:39.389,340.878,-31.803,2795.816897
4 Jan 2000 01:51:39.000,337.347,-33.365,2464.019231
4 Jan 2000 01:52:39.000,332.418,-35.790,2148.623082
4 Jan 2000 01:53:39.000,325.280,-39.262,1862.636859
4 Jan 2000 01:54:39.000,314.525,-43.746,1622.880967
4 Jan 2000 01:55:39.000,298.214,-48.399,1453.389773
4 Jan 2000 01:56:39.000,275.870,-50.983,1380.912263
4 Jan 2000 01:57:39.000,252.427,-49.513,1420.597058
4 Jan 2000 01:58:39.000,234.197,-45.189,1563.781307
4 Jan 2000 01:59:39.000,222.009,-40.509,1785.307066
4 Jan 2000 02:00:39.000,213.992,-36.712,2059.417458
4 Jan 2000 02:01:39.000,208.537,-33.992,2367.140743
4 Jan 2000 02:02:39.000,204.667,-32.190,2696.114905
4 Jan 2000 02:02:52.502,203.951,-31.889,2772.209710

Interval Statistics
"Min Elevation",4 Jan 2000 01:56:47.930,272.260,-51.032,1379.641550
"Max Elevation",4 Jan 2000 01:50:39.389,340.878,-31.803,2795.816897
"Mean Elevation",,,-39.524,
"Min Range",4 Jan 2000 01:56:47.931,272.260,-51.032,1379.641550
"Max Range",4 Jan 2000 01:50:39.389,340.878,-31.803,2795.816897
"Mean Range",,,,2028.060523

"Time (UTCG)","Azimuth (deg)","Elevation (deg)","Range (km)"
4 Jan 2000 15:32:10.550,305.873,-31.881,2774.324201
4 Jan 2000 15:33:10.000,298.654,-32.792,2566.849537
4 Jan 2000 15:34:10.000,289.949,-33.750,2402.826175
4 Jan 2000 15:35:10.000,279.920,-34.523,2294.836159
4 Jan 2000 15:36:10.000,269.013,-34.870,2251.430462
4 Jan 2000 15:37:10.000,257.985,-34.667,2276.535821
4 Jan 2000 15:38:10.000,247.642,-33.986,2367.965270
4 Jan 2000 15:39:10.000,238.531,-33.051,2518.281882
4 Jan 2000 15:40:10.000,230.840,-32.102,2717.325366
4 Jan 2000 15:40:29.878,228.597,-31.816,2792.208395

Interval Statistics
"Min Elevation",4 Jan 2000 15:36:18.083,267.515,-34.876,2250.803421
"Max Elevation",4 Jan 2000 15:40:29.878,228.597,-31.816,2792.208395
"Mean Elevation",,,-33.344,
"Min Range",4 Jan 2000 15:36:18.083,267.515,-34.876,2250.803422
"Max Range",4 Jan 2000 15:40:29.878,228.597,-31.816,2792.208395
"Mean Range",,,,2496.258327

"Time (UTCG)","Azimuth (deg)","Elevation (deg)","Range (km)"
4 Jan 2000 17:17:15.284,351.221,-31.882,2774.114420
4 Jan 2000 17:18:15.000,350.098,-33.650,2418.236663
4 Jan 2000 17:19:15.000,348.458,-36.581,2071.399551
4 Jan 2000 17:20:15.000,345.888,-41.260,1743.245323
4 Jan 2000 17:21:15.000,341.358,-48.577,1447.990326
4 Jan 2000 17:22:15.000,331.583,-59.449,1211.257207
4 Jan 2000 17:23:15.000,301.790,-72.144,1073.490131
4 Jan 2000 17:24:15.000,233.778,-72.078,1073.961592
4 Jan 2000 17:25:15.000,204.226,-59.370,1212.484544
4 Jan 2000 17:26:15.000,194.500,-48.523,1449.629688
4 Jan 2000 17:27:15.000,189.975,-41.227,1745.027741
4 Jan 2000 17:28:15.000,187.394,-36.562,2073.151298
4 Jan 2000 17:29:15.000,185.735,-33.639,2419.842387
4 Jan 2000 17:30:15.000,184.581,-31.871,2777.200747
4 Jan 2000 17:30:18.260,184.529,-31.799,2796.821581

Interval Statistics
"Min Elevation",4 Jan 2000 17:23:44.807,267.955,-74.982,1055.174192
"Max Elevation",4 Jan 2000 17:30:18.260,184.529,-31.799,2796.821581
"Mean Elevation",,,-45.241,
"Min Range",4 Jan 2000 17:23:44.807,267.955,-74.982,1055.174192
"Max Range",4 Jan 2000 17:30:18.260,184.529,-31.799,2796.821581
"Mean Range",,,,1885.856880

"Time (UTCG)","Azimuth (deg)","Elevation (deg)","Range (km)"
4 Jan 2000 19:06:29.733,20.876,-31.844,2784.346282
4 Jan 2000 19:07:29.000,24.449,-33.377,2462.026745
4 Jan 2000 19:08:29.000,29.423,-35.736,2154.243101
4 Jan 2000 19:09:29.000,36.547,-39.070,1875.447341
4 Jan 2000 19:10:29.000,47.116,-43.324,1641.552726
4 Jan 2000 19:11:29.000,62.833,-47.711,1474.941232
4 Jan 2000 19:12:29.000,84.088,-50.244,1400.387040
4 Jan 2000 19:13:29.000,106.653,-49.099,1432.516069
4 Jan 2000 19:14:29.000,124.751,-45.168,1564.613232
4 Jan 2000 19:15:29.000,137.185,-40.704,1774.071128
4 Jan 2000 19:16:29.000,145.498,-36.969,2036.555264
4 Jan 2000 19:17:29.000,151.207,-34.232,2333.501742
4 Jan 2000 19:18:29.000,155.282,-32.379,2652.527859
4 Jan 2000 19:18:55.348,156.712,-31.797,2797.437375

Interval Statistics
"Min Elevation",4 Jan 2000 19:12:41.114,88.760,-50.327,1398.162157
"Max Elevation",4 Jan 2000 19:18:55.348,156.712,-31.797,2797.437375
"Mean Elevation",,,-39.404,
"Min Range",4 Jan 2000 19:12:41.115,88.760,-50.327,1398.162157
"Max Range",4 Jan 2000 19:18:55.348,156.712,-31.797,2797.437375
"Mean Range",,,,2027.440510

"Time (UTCG)","Azimuth (deg)","Elevation (deg)","Range (km)"
4 Jan 2000 20:57:12.007,34.994,-31.810,2793.858224
4 Jan 2000 20:58:12.000,40.320,-33.080,2513.146822
4 Jan 2000 20:59:12.000,47.239,-34.789,2261.304072
4 Jan 2000 21:00:12.000,56.234,-36.817,2049.991395
4 Jan 2000 21:01:12.000,67.677,-38.806,1893.603516
4 Jan 2000 21:02:12.000,81.381,-40.143,1807.007387
4 Jan 2000 21:03:12.000,96.144,-40.250,1800.584102
4 Jan 2000 21:04:12.000,110.118,-39.074,1875.172180
4 Jan 2000 21:05:12.000,121.947,-37.143,2021.601498
4 Jan 2000 21:06:12.000,131.305,-35.091,2225.319283
4 Jan 2000 21:07:12.000,138.513,-33.319,2471.634412
4 Jan 2000 21:08:12.000,144.057,-31.979,2748.437578
4 Jan 2000 21:08:21.580,144.817,-31.807,2794.814036

Interval Statistics
"Min Elevation",4 Jan 2000 21:02:46.674,89.900,-40.374,1793.209455
"Max Elevation",4 Jan 2000 21:08:21.580,144.817,-31.807,2794.814036
"Mean Elevation",,,-35.700,
"Min Range",4 Jan 2000 21:02:46.674,89.900,-40.374,1793.209455
"Max Range",4 Jan 2000 21:08:21.580,144.817,-31.807,2794.814036
"Mean Range",,,,2250.498039

"Time (UTCG)","Azimuth (deg)","Elevation (deg)","Range (km)"
4 Jan 2000 22:46:52.748,26.546,-31.798,2797.310592
4 Jan 2000 22:47:52.000,30.538,-33.238,2485.385073
4 Jan 2000 22:48:52.000,36.021,-35.402,2190.070154
4 Jan 2000 22:49:52.000,43.684,-38.350,1926.138953
4 Jan 2000 22:50:52.000,54.585,-41.907,1709.291817
4 Jan 2000 22:51:52.000,69.780,-45.283,1560.181227
4 Jan 2000 22:52:52.000,88.865,-46.959,1499.749120
4 Jan 2000 22:53:52.000,108.446,-45.854,1538.737076
4 Jan 2000 22:54:52.000,124.633,-42.704,1670.136033
4 Jan 2000 22:55:52.000,136.416,-39.087,1874.294271
4 Jan 2000 22:56:52.000,144.701,-35.973,2129.882737
4 Jan 2000 22:57:52.000,150.601,-33.638,2420.010442
4 Jan 2000 22:58:52.000,154.921,-32.040,2732.944826
4 Jan 2000 22:59:01.906,155.521,-31.838,2786.214916

Interval Statistics
"Min Elevation",4 Jan 2000 22:52:58.579,91.072,-46.977,1499.140794
"Max Elevation",4 Jan 2000 22:46:52.748,26.546,-31.798,2797.310592
"Mean Elevation",,,-38.148,
"Min Range",4 Jan 2000 22:52:58.579,91.072,-46.977,1499.140794
"Max Range",4 Jan 2000 22:46:52.748,26.546,-31.798,2797.310592
"Mean Range",,,,2094.310517

"Time (UTCG)","Azimuth (deg)","Elevation (deg)","Range (km)"
5 Jan 2000 00:35:31.820,0.847,-31.798,2797.117370
5 Jan 2000 00:36:31.000,0.650,-33.497,2442.378382
5 Jan 2000 00:37:31.000,0.368,-36.360,2091.990166
5 Jan 2000 00:38:31.000,359.936,-40.990,1758.034954
5 Jan 2000 00:39:31.000,359.179,-48.398,1453.419847
5 Jan 2000 00:40:31.000,357.496,-60.054,1202.099478
5 Jan 2000 00:41:31.000,350.545,-76.983,1044.450963
5 Jan 2000 00:42:31.000,200.574,-81.844,1025.294857
5 Jan 2000 00:43:31.000,187.196,-63.825,1151.666810
5 Jan 2000 00:44:31.000,185.004,-50.864,1383.971289
5 Jan 2000 00:45:31.000,184.117,-42.535,1678.234054
5 Jan 2000 00:46:31.000,183.644,-37.320,2006.659509
5 Jan 2000 00:47:31.000,183.355,-34.083,2354.153389
5 Jan 2000 00:48:31.000,183.165,-32.122,2712.476508
5 Jan 2000 00:48:41.416,183.138,-31.877,2775.396725

Interval Statistics
"Min Elevation",5 Jan 2000 00:42:08.557,271.943,-87.374,1014.495832
"Max Elevation",5 Jan 2000 00:35:31.820,0.847,-31.798,2797.117370
"Mean Elevation",,,-46.837,
"Min Range",5 Jan 2000 00:42:08.557,271.940,-87.374,1014.495832
"Max Range",5 Jan 2000 00:35:31.820,0.847,-31.798,2797.117370
"Mean Range",,,,1858.489620

"Time (UTCG)","Azimuth (deg)","Elevation (deg)","Range (km)"
5 Jan 2000 02:24:52.015,320.844,-31.811,2793.603736
5 Jan 2000 02:25:52.000,314.555,-32.970,2533.119554
5 Jan 2000 02:26:52.000,306.607,-34.409,2309.711944
5 Jan 2000 02:27:52.000,296.732,-35.913,2135.955971
5 Jan 2000 02:28:52.000,284.985,-37.100,2025.269952
5 Jan 2000 02:29:52.000,272.042,-37.540,1988.548402
5 Jan 2000 02:30:52.000,259.146,-37.046,2029.867762
5 Jan 2000 02:31:52.000,247.517,-35.829,2144.523532
5 Jan 2000 02:32:52.000,237.785,-34.322,2321.258573
5 Jan 2000 02:33:52.000,229.975,-32.898,2546.591465
5 Jan 2000 02:34:44.300,224.519,-31.886,2772.911753

Interval Statistics
"Min Elevation",5 Jan 2000 02:29:50.206,272.435,-37.541,1988.513168
"Max Elevation",5 Jan 2000 02:24:52.015,320.844,-31.811,2793.603736
"Mean Elevation",,,-34.702,
"Min Range",5 Jan 2000 02:29:50.207,272.435,-37.541,1988.513168
"Max Range",5 Jan 2000 02:24:52.015,320.844,-31.811,2793.603736
"Mean Range",,,,2327.396604

"Time (UTCG)","Azimuth (deg)","Elevation (deg)","Range (km)"
5 Jan 2000 16:03:28.532,329.034,-31.890,2772.066000
5 Jan 2000 16:04:28.000,324.439,-33.372,2462.851687
5 Jan 2000 16:05:28.000,318.157,-35.533,2175.803538
5 Jan 2000 16:06:28.000,309.467,-38.349,1926.222743
5 Jan 2000 16:07:28.000,297.439,-41.480,1731.459711
5 Jan 2000 16:08:28.000,281.587,-43.992,1612.321261
5 Jan 2000 16:09:28.000,263.244,-44.617,1586.422641
5 Jan 2000 16:10:28.000,245.749,-42.957,1658.269687
5 Jan 2000 16:11:28.000,231.682,-39.993,1816.119831
5 Jan 2000 16:12:28.000,221.335,-36.933,2039.680482
5 Jan 2000 16:13:28.000,213.877,-34.412,2309.340927
5 Jan 2000 16:14:28.000,208.431,-32.577,2610.111145
5 Jan 2000 16:15:02.912,205.926,-31.805,2795.160462

Interval Statistics
"Min Elevation",5 Jan 2000 16:09:13.732,267.668,-44.686,1583.603716
"Max Elevation",5 Jan 2000 16:15:02.912,205.926,-31.805,2795.160462
"Mean Elevation",,,-37.531,
"Min Range",5 Jan 2000 16:09:13.732,267.668,-44.686,1583.603716
"Max Range",5 Jan 2000 16:15:02.912,205.926,-31.805,2795.160462
"Mean Range",,,,2115.063855

"Time (UTCG)","Azimuth (deg)","Elevation (deg)","Range (km)"
5 Jan 2000 17:50:48.945,5.740,-31.867,2778.048528
5 Jan 2000 17:51:48.000,7.018,-33.584,2428.517040
5 Jan 2000 17:52:48.000,8.872,-36.444,2084.120616
5 Jan 2000 17:53:48.000,11.732,-40.985,1758.295320
5 Jan 2000 17:54:48.000,16.679,-48.029,1464.872716
5 Jan 2000 17:55:48.000,26.983,-58.363,1228.538937
5 Jan 2000 17:56:48.000,55.547,-70.224,1088.088026
5 Jan 2000 17:57:48.000,116.704,-70.999,1081.970639
5 Jan 2000 17:58:48.000,148.142,-59.390,1212.174091
5 Jan 2000 17:59:48.000,159.236,-48.782,1441.837332
5 Jan 2000 18:00:48.000,164.444,-41.485,1731.200127
5 Jan 2000 18:01:48.000,167.409,-36.767,2054.415357
5 Jan 2000 18:02:48.000,169.307,-33.789,2396.949022
5 Jan 2000 18:03:48.000,170.616,-31.970,2750.644306
5 Jan 2000 18:03:55.838,170.757,-31.797,2797.393757

Interval Statistics
"Min Elevation",5 Jan 2000 17:57:20.550,88.261,-73.120,1066.764610
"Max Elevation",5 Jan 2000 18:03:55.838,170.757,-31.797,2797.393757
"Mean Elevation",,,-44.965,
"Min Range",5 Jan 2000 17:57:20.550,88.261,-73.120,1066.764610
"Max Range",5 Jan 2000 18:03:55.838,170.757,-31.797,2797.393757
"Mean Range",,,,1886.471054

"Time (UTCG)","Azimuth (deg)","Elevation (deg)","Range (km)"
5 Jan 2000 19:41:02.180,29.567,-31.827,2789.205602
5 Jan 2000 19:42:02.000,34.305,-33.208,2490.677377
5 Jan 2000 19:43:02.000,40.623,-35.169,2216.288591
5 Jan 2000 19:44:02.000,49.145,-37.666,1978.454929
5 Jan 2000 19:45:02.000,60.587,-40.384,1792.657343
5 Jan 2000 19:46:02.000,75.240,-42.562,1676.925007
5 Jan 2000 19:47:02.000,92.013,-43.215,1646.455305
5 Jan 2000 19:48:02.000,108.324,-41.974,1705.877100
5 Jan 2000 19:49:02.000,121.953,-39.512,1846.317896
5 Jan 2000 19:50:02.000,132.364,-36.808,2050.772793
5 Jan 2000 19:51:02.000,140.077,-34.470,2301.656556
5 Jan 2000 19:52:02.000,145.811,-32.701,2584.775243
5 Jan 2000 19:52:44.064,148.970,-31.799,2796.837874

Interval Statistics
"Min Elevation",5 Jan 2000 19:46:52.214,89.232,-43.242,1645.240873
"Max Elevation",5 Jan 2000 19:52:44.064,148.970,-31.799,2796.837874
"Mean Elevation",,,-37.023,
"Min Range",5 Jan 2000 19:46:52.214,89.232,-43.242,1645.240873
"Max Range",5 Jan 2000 19:52:44.064,148.970,-31.799,2796.837874
"Mean Range",,,,2144.377047

"Time (UTCG)","Azimuth (deg)","Elevation (deg)","Range (km)"
5 Jan 2000 21:31:29.765,34.019,-31.802,2796.042758
5 Jan 2000 21:32:29.000,39.075,-33.082,2512.778733
5 Jan 2000 21:33:29.000,45.766,-34.857,2253.103237
5 Jan 2000 21:34:29.000,54.568,-37.018,2032.343687
5 Jan 2000 21:35:29.000,65.961,-39.223,1865.219527
5 Jan 2000 21:36:29.000,79.904,-40.818,1767.636300
5 Jan 2000 21:37:29.000,95.236,-41.106,1751.610318
5 Jan 2000 21:38:29.000,109.912,-39.940,1819.372662
5 Jan 2000 21:39:29.000,122.329,-37.874,1962.085192
5 Jan 2000 21:40:29.000,132.074,-35.637,2164.593475
5 Jan 2000 21:41:29.000,139.504,-33.694,2411.339831
5 Jan 2000 21:42:29.000,145.162,-32.218,2689.515767
5 Jan 2000 21:42:49.871,146.806,-31.817,2791.813467

Interval Statistics
"Min Elevation",5 Jan 2000 21:37:10.340,90.437,-41.182,1747.485193
"Max Elevation",5 Jan 2000 21:31:29.765,34.019,-31.802,2796.042758
"Mean Elevation",,,-36.084,
"Min Range",5 Jan 2000 21:37:10.340,90.437,-41.182,1747.485193
"Max Range",5 Jan 2000 21:31:29.765,34.019,-31.802,2796.042758
"Mean Range",,,,2216.727304

"Time (UTCG)","Azimuth (deg)","Elevation (deg)","Range (km)"
5 Jan 2000 23:20:34.286,16.845,-31.797,2797.536232
5 Jan 2000 23:21:34.000,19.359,-33.408,2456.799658
5 Jan 2000 23:22:34.000,22.918,-35.990,2128.149413
5 Jan 2000 23:23:34.000,28.228,-39.895,1822.116102
5 Jan 2000 23:24:34.000,36.741,-45.458,1553.482692
5 Jan 2000 23:25:34.000,51.463,-52.401,1346.035266
5 Jan 2000 23:26:34.000,76.814,-58.154,1231.987867
5 Jan 2000 23:27:34.000,109.090,-57.802,1237.910355
5 Jan 2000 23:28:34.000,133.340,-51.724,1362.291521
5 Jan 2000 23:29:34.000,147.297,-44.850,1577.074373
5 Jan 2000 23:30:34.000,155.422,-39.447,1850.540092
5 Jan 2000 23:31:34.000,160.535,-35.682,2159.844510
5 Jan 2000 23:32:34.000,163.991,-33.206,2490.889528
5 Jan 2000 23:33:24.690,166.126,-31.856,2781.146742

Interval Statistics
"Min Elevation",5 Jan 2000 23:27:01.161,91.503,-58.949,1219.076912
"Max Elevation",5 Jan 2000 23:20:34.286,16.845,-31.797,2797.536232
"Mean Elevation",,,-42.262,
"Min Range",5 Jan 2000 23:27:01.160,91.502,-58.949,1219.076912
"Max Range",5 Jan 2000 23:20:34.286,16.845,-31.797,2797.536232
"Mean Range",,,,1913.986025

"Time (UTCG)","Azimuth (deg)","Elevation (deg)","Range (km)"
6 Jan 2000 01:09:14.325,345.525,-31.802,2796.192255
6 Jan 2000 01:10:14.000,342.730,-33.428,2453.582090
6 Jan 2000 01:11:14.000,338.776,-36.029,2124.276793
6 Jan 2000 01:12:14.000,332.887,-39.932,1819.849632
6 Jan 2000 01:13:14.000,323.508,-45.384,1556.286538
6 Jan 2000 01:14:14.000,307.657,-51.871,1358.704561
6 Jan 2000 01:15:14.000,282.040,-56.584,1259.338802
6 Jan 2000 01:16:14.000,252.109,-55.406,1281.580869
6 Jan 2000 01:17:14.000,230.100,-49.547,1419.646645
6 Jan 2000 01:18:14.000,217.017,-43.264,1644.222468
6 Jan 2000 01:19:14.000,209.154,-38.370,1924.650059
6 Jan 2000 01:20:14.000,204.104,-34.972,2239.279860
6 Jan 2000 01:21:14.000,200.651,-32.752,2574.732251
6 Jan 2000 01:21:48.303,199.139,-31.888,2772.601978

Interval Statistics
"Min Elevation",6 Jan 2000 01:15:33.294,272.201,-56.945,1252.818962
"Max Elevation",6 Jan 2000 01:09:14.325,345.525,-31.802,2796.192255
"Mean Elevation",,,-41.516,
"Min Range",6 Jan 2000 01:15:33.294,272.201,-56.945,1252.818962
"Max Range",6 Jan 2000 01:09:14.325,345.525,-31.802,2796.192255
"Mean Range",,,,1944.638914

"Time (UTCG)","Azimuth (deg)","Elevation (deg)","Range (km)"
6 Jan 2000 03:01:03.057,285.561,-31.835,2787.002239
6 Jan 2000 03:02:03.000,277.094,-32.050,2730.409267
6 Jan 2000 03:03:03.000,268.409,-32.055,2729.106731
6 Jan 2000 03:04:00.931,260.214,-31.859,2780.409709

Interval Statistics
"Min Elevation",6 Jan 2000 03:02:34.392,272.550,-32.080,2722.738255
"Max Elevation",6 Jan 2000 03:01:03.057,285.561,-31.835,2787.002239
"Mean Elevation",,,-31.949,
"Min Range",6 Jan 2000 03:02:34.393,272.550,-32.080,2722.738255
"Max Range",6 Jan 2000 03:01:03.057,285.561,-31.835,2787.002239
"Mean Range",,,,2756.731987

"Time (UTCG)","Azimuth (deg)","Elevation (deg)","Range (km)"
6 Jan 2000 14:51:51.824,297.314,-31.875,2776.052467
6 Jan 2000 14:52:51.000,289.528,-32.544,2617.023147
6 Jan 2000 14:53:51.000,280.572,-33.118,2506.413320
6 Jan 2000 14:54:51.000,270.867,-33.425,2454.135675
6 Jan 2000 14:55:51.000,260.946,-33.364,2464.174173
6 Jan 2000 14:56:51.000,251.414,-32.955,2535.836272
6 Jan 2000 14:57:51.000,242.751,-32.328,2663.995754
6 Jan 2000 14:58:35.451,237.044,-31.821,2790.730186

Interval Statistics
"Min Elevation",6 Jan 2000 14:55:11.416,267.484,-33.447,2450.489342
"Max Elevation",6 Jan 2000 14:58:35.451,237.044,-31.821,2790.730186
"Mean Elevation",,,-32.679,
"Min Range",6 Jan 2000 14:55:11.416,267.484,-33.447,2450.489342
"Max Range",6 Jan 2000 14:58:35.451,237.044,-31.821,2790.730186
"Mean Range",,,,2601.045124

"Time (UTCG)","Azimuth (deg)","Elevation (deg)","Range (km)"
6 Jan 2000 16:36:02.383,346.892,-31.885,2773.374992
6 Jan 2000 16:37:02.000,345.050,-33.623,2422.329310
6 Jan 2000 16:38:02.000,342.382,-36.474,2081.330107
6 Jan 2000 16:39:02.000,338.263,-40.931,1761.317319
6 Jan 2000 16:40:02.000,331.234,-47.635,1477.413575
6 Jan 2000 16:41:02.000,317.412,-56.789,1255.617864
6 Jan 2000 16:42:02.000,287.006,-65.379,1133.910787
6 Jan 2000 16:43:02.000,242.248,-64.384,1145.098295
6 Jan 2000 16:44:02.000,215.349,-55.198,1285.674005
6 Jan 2000 16:45:02.000,203.079,-46.380,1519.767955
6 Jan 2000 16:46:02.000,196.670,-40.079,1810.859008
6 Jan 2000 16:47:02.000,192.832,-35.923,2134.992589
6 Jan 2000 16:48:02.000,190.302,-33.279,2478.363077
6 Jan 2000 16:48:55.895,188.675,-31.800,2796.583283

Interval Statistics
"Min Elevation",6 Jan 2000 16:42:27.166,267.884,-66.549,1121.568637
"Max Elevation",6 Jan 2000 16:48:55.895,188.675,-31.800,2796.583283
"Mean Elevation",,,-44.268,
"Min Range",6 Jan 2000 16:42:27.166,267.884,-66.549,1121.568637
"Max Range",6 Jan 2000 16:48:55.895,188.675,-31.800,2796.583283
"Mean Range",,,,1862.616583

"Time (UTCG)","Azimuth (deg)","Elevation (deg)","Range (km)"
6 Jan 2000 18:24:56.228,17.992,-31.849,2782.970413
6 Jan 2000 18:25:56.000,21.188,-33.446,2450.616507
6 Jan 2000 18:26:56.000,25.652,-35.935,2133.718735
6 Jan 2000 18:27:56.000,32.167,-39.556,1843.481395
6 Jan 2000 18:28:56.000,42.168,-44.390,1595.662546
6 Jan 2000 18:29:56.000,57.960,-49.759,1413.689057
6 Jan 2000 18:30:56.000,81.112,-53.296,1325.581491
6 Jan 2000 18:31:56.000,106.866,-52.230,1350.069180
6 Jan 2000 18:32:56.000,126.935,-47.510,1481.440698
6 Jan 2000 18:33:56.000,139.919,-42.200,1694.604768
6 Jan 2000 18:34:56.000,148.186,-37.869,1962.478066
6 Jan 2000 18:35:56.000,153.681,-34.760,2264.984431
6 Jan 2000 18:36:56.000,157.519,-32.679,2589.167901
6 Jan 2000 18:37:33.227,159.352,-31.797,2797.504971

Interval Statistics
"Min Elevation",6 Jan 2000 18:31:13.188,88.644,-53.511,1320.822490
"Max Elevation",6 Jan 2000 18:37:33.227,159.352,-31.797,2797.504971
"Mean Elevation",,,-40.520,
"Min Range",6 Jan 2000 18:31:13.188,88.644,-53.511,1320.822490
"Max Range",6 Jan 2000 18:37:33.227,159.352,-31.797,2797.504971
"Mean Range",,,,1977.569297

"Time (UTCG)","Azimuth (deg)","Elevation (deg)","Range (km)"
6 Jan 2000 20:15:36.990,34.444,-31.813,2793.046296
6 Jan 2000 20:16:36.000,39.628,-33.069,2515.080643
6 Jan 2000 20:17:36.000,46.474,-34.794,2260.704763
6 Jan 2000 20:18:36.000,55.404,-36.858,2046.351948
6 Jan 2000 20:19:36.000,66.820,-38.908,1886.498008
6 Jan 2000 20:20:36.000,80.580,-40.322,1796.307975
6 Jan 2000 20:21:36.000,95.498,-40.486,1786.650976
6 Jan 2000 20:22:36.000,109.672,-39.320,1858.799080
6 Jan 2000 20:23:36.000,121.676,-37.355,2003.711321
6 Jan 2000 20:24:36.000,131.155,-35.253,2206.680391
6 Jan 2000 20:25:36.000,138.436,-33.433,2452.766064
6 Jan 2000 20:26:36.000,144.019,-32.053,2729.647384
6 Jan 2000 20:26:49.546,145.093,-31.804,2795.417547

Interval Statistics
"Min Elevation",6 Jan 2000 20:21:12.972,89.754,-40.592,1780.503075
"Max Elevation",6 Jan 2000 20:26:49.546,145.093,-31.804,2795.417547
"Mean Elevation",,,-35.805,
"Min Range",6 Jan 2000 20:21:12.972,89.754,-40.592,1780.503075
"Max Range",6 Jan 2000 20:26:49.546,145.093,-31.804,2795.417547
"Mean Range",,,,2240.897107

"Time (UTCG)","Azimuth (deg)","Elevation (deg)","Range (km)"
6 Jan 2000 22:05:28.638,28.648,-31.798,2797.151971
6 Jan 2000 22:06:28.000,32.955,-33.200,2491.910124
6 Jan 2000 22:07:28.000,38.804,-35.261,2205.744914
6 Jan 2000 22:08:28.000,46.848,-37.991,1953.088230
6 Jan 2000 22:09:28.000,57.991,-41.144,1749.552569
6 Jan 2000 22:10:28.000,72.917,-43.938,1614.644115
6 Jan 2000 22:11:28.000,90.856,-45.113,1566.724617
6 Jan 2000 22:12:28.000,108.816,-43.958,1613.769506
6 Jan 2000 22:13:28.000,123.787,-41.171,1748.037628
6 Jan 2000 22:14:28.000,134.975,-38.014,1951.274960
6 Jan 2000 22:15:28.000,143.056,-35.277,2203.969905
6 Jan 2000 22:16:28.000,148.935,-33.209,2490.462797
6 Jan 2000 22:17:25.714,153.162,-31.833,2787.547610

Interval Statistics
"Min Elevation",6 Jan 2000 22:11:28.286,90.944,-45.113,1566.723520
"Max Elevation",6 Jan 2000 22:05:28.638,28.648,-31.798,2797.151971
"Mean Elevation",,,-37.839,
"Min Range",6 Jan 2000 22:11:28.286,90.944,-45.113,1566.723520
"Max Range",6 Jan 2000 22:05:28.638,28.648,-31.798,2797.151971
"Mean Range",,,,2090.298380

"Time (UTCG)","Azimuth (deg)","Elevation (deg)","Range (km)"
6 Jan 2000 23:54:10.783,4.572,-31.798,2797.242927
6 Jan 2000 23:55:10.000,5.012,-33.491,2443.269719
6 Jan 2000 23:56:10.000,5.658,-36.340,2093.955220
6 Jan 2000 23:57:10.000,6.671,-40.933,1761.160190
6 Jan 2000 23:58:10.000,8.460,-48.257,1457.773454
6 Jan 2000 23:59:10.000,12.407,-59.688,1207.603232
7 Jan 2000 00:00:10.000,27.532,-75.805,1050.551172
7 Jan 2000 00:01:10.000,142.412,-80.187,1030.767207
7 Jan 2000 00:02:10.000,169.355,-63.513,1155.441777
7 Jan 2000 00:03:10.000,174.551,-50.792,1385.846080
7 Jan 2000 00:04:10.000,176.703,-42.530,1678.457160
7 Jan 2000 00:05:10.000,177.878,-37.333,2005.520734
7 Jan 2000 00:06:10.000,178.620,-34.099,2351.879574
7 Jan 2000 00:07:10.000,179.133,-32.135,2709.234024
7 Jan 2000 00:07:21.154,179.211,-31.873,2776.458757

Interval Statistics
"Min Elevation",7 Jan 2000 00:00:47.874,91.857,-83.720,1020.363261
"Max Elevation",6 Jan 2000 23:54:10.783,4.572,-31.798,2797.242927
"Mean Elevation",,,-46.585,
"Min Range",7 Jan 2000 00:00:47.874,91.857,-83.720,1020.363261
"Max Range",6 Jan 2000 23:54:10.783,4.572,-31.798,2797.242927
"Mean Range",,,,1860.344082

"Time (UTCG)","Azimuth (deg)","Elevation (deg)","Range (km)"
7 Jan 2000 01:43:16.884,326.858,-31.808,2794.384399
7 Jan 2000 01:44:16.000,321.385,-33.089,2511.468742
7 Jan 2000 01:45:16.000,314.147,-34.838,2255.410480
7 Jan 2000 01:46:16.000,304.707,-36.891,2043.397920
7 Jan 2000 01:47:16.000,292.717,-38.842,1891.085720
7 Jan 2000 01:48:16.000,278.507,-40.026,1814.089482
7 Jan 2000 01:49:16.000,263.504,-39.894,1822.193342
7 Jan 2000 01:50:16.000,249.647,-38.514,1914.232752
7 Jan 2000 01:51:16.000,238.159,-36.501,2078.751105
7 Jan 2000 01:52:16.000,229.193,-34.485,2299.707209
7 Jan 2000 01:53:16.000,222.339,-32.818,2561.847294
7 Jan 2000 01:53:59.847,218.371,-31.888,2772.342715

Interval Statistics
"Min Elevation",7 Jan 2000 01:48:40.381,272.394,-40.144,1806.910287
"Max Elevation",7 Jan 2000 01:43:16.884,326.858,-31.808,2794.384399
"Mean Elevation",,,-35.800,
"Min Range",7 Jan 2000 01:48:40.382,272.394,-40.144,1806.910287
"Max Range",7 Jan 2000 01:43:16.884,326.858,-31.808,2794.384399
"Mean Range",,,,2229.909263

"Time (UTCG)","Azimuth (deg)","Elevation (deg)","Range (km)"
7 Jan 2000 15:22:35.667,323.509,-31.889,2772.238981
7 Jan 2000 15:23:35.000,318.183,-33.250,2483.460999
7 Jan 2000 15:24:35.000,311.079,-35.124,2221.395522
7 Jan 2000 15:25:35.000,301.668,-37.371,2002.387602
7 Jan 2000 15:26:35.000,289.484,-39.567,1842.783691
7 Jan 2000 15:27:35.000,274.759,-40.963,1759.490923
7 Jan 2000 15:28:35.000,259.015,-40.888,1763.707832
7 Jan 2000 15:29:35.000,244.475,-39.380,1854.878409
7 Jan 2000 15:30:35.000,232.540,-37.149,2021.038420
7 Jan 2000 15:31:35.000,223.347,-34.923,2245.152312
7 Jan 2000 15:32:35.000,216.403,-33.091,2511.137072
7 Jan 2000 15:33:32.693,211.307,-31.807,2794.597577

Interval Statistics
"Min Elevation",7 Jan 2000 15:28:02.173,267.620,-41.130,1750.282672
"Max Elevation",7 Jan 2000 15:33:32.693,211.307,-31.807,2794.597577
"Mean Elevation",,,-36.284,
"Min Range",7 Jan 2000 15:28:02.174,267.620,-41.130,1750.282672
"Max Range",7 Jan 2000 15:33:32.693,211.307,-31.807,2794.597577
"Mean Range",,,,2189.355778

"Time (UTCG)","Azimuth (deg)","Elevation (deg)","Range (km)"
7 Jan 2000 17:09:25.094,2.027,-31.872,2776.852225
7 Jan 2000 17:10:25.000,2.714,-33.643,2419.268693
7 Jan 2000 17:11:25.000,3.701,-36.583,2071.168537
7 Jan 2000 17:12:25.000,5.233,-41.308,1740.633108
7 Jan 2000 17:13:25.000,7.940,-48.803,1441.229938
7 Jan 2000 17:14:25.000,13.957,-60.342,1197.837938
7 Jan 2000 17:15:25.000,36.595,-75.703,1051.110691
7 Jan 2000 17:16:25.000,133.688,-77.249,1043.150931
7 Jan 2000 17:17:25.000,161.282,-61.847,1176.742300
7 Jan 2000 17:18:25.000,167.971,-49.825,1411.869938
7 Jan 2000 17:19:25.000,170.866,-41.963,1706.443655
7 Jan 2000 17:20:25.000,172.466,-36.998,2034.018111
7 Jan 2000 17:21:25.000,173.475,-33.902,2380.121765
7 Jan 2000 17:22:25.000,174.163,-32.024,2736.778198
7 Jan 2000 17:22:35.068,174.258,-31.798,2797.298499

Interval Statistics
"Min Elevation",7 Jan 2000 17:15:58.190,88.172,-80.971,1028.042969
"Max Elevation",7 Jan 2000 17:22:35.068,174.258,-31.798,2797.298499
"Mean Elevation",,,-46.257,
"Min Range",7 Jan 2000 17:15:58.190,88.171,-80.971,1028.042969
"Max Range",7 Jan 2000 17:22:35.068,174.258,-31.798,2797.298499
"Mean Range",,,,1865.634969

"Time (UTCG)","Azimuth (deg)","Elevation (deg)","Range (km)"
7 Jan 2000 18:59:25.250,27.549,-31.831,2787.961430
7 Jan 2000 19:00:25.000,32.036,-33.252,2483.036042
7 Jan 2000 19:01:25.000,38.078,-35.310,2200.331144
7 Jan 2000 19:02:25.000,46.347,-37.998,1952.482589
7 Jan 2000 19:03:25.000,57.700,-41.040,1755.236309
7 Jan 2000 19:04:25.000,72.687,-43.634,1627.782565
7 Jan 2000 19:05:25.000,90.366,-44.592,1587.417389
7 Jan 2000 19:06:25.000,107.807,-43.343,1640.660463
7 Jan 2000 19:07:25.000,122.284,-40.620,1778.924020
7 Jan 2000 19:08:25.000,133.145,-37.596,1984.087387
7 Jan 2000 19:09:25.000,141.042,-34.989,2237.227593
7 Jan 2000 19:10:25.000,146.821,-33.024,2523.229156
7 Jan 2000 19:11:18.489,150.726,-31.798,2797.085294

Interval Statistics
"Min Elevation",7 Jan 2000 19:05:20.808,89.098,-44.598,1587.185352
"Max Elevation",7 Jan 2000 19:11:18.489,150.726,-31.798,2797.085294
"Mean Elevation",,,-37.618,
"Min Range",7 Jan 2000 19:05:20.808,89.098,-44.598,1587.185352
"Max Range",7 Jan 2000 19:11:18.489,150.726,-31.798,2797.085294
"Mean Range",,,,2104.266260

"Time (UTCG)","Azimuth (deg)","Elevation (deg)","Range (km)"
7 Jan 2000 20:49:59.623,34.745,-31.804,2795.571419
7 Jan 2000 20:50:59.000,39.922,-33.069,2515.087372
7 Jan 2000 20:51:59.000,46.730,-34.802,2259.709577
7 Jan 2000 20:52:59.000,55.627,-36.884,2044.064870
7 Jan 2000 20:53:59.000,67.030,-38.964,1882.674691
7 Jan 2000 20:54:59.000,80.819,-40.414,1790.861083
7 Jan 2000 20:55:59.000,95.815,-40.605,1779.749887
7 Jan 2000 20:56:59.000,110.090,-39.442,1850.846134
7 Jan 2000 20:57:59.000,122.182,-37.459,1995.187934
7 Jan 2000 20:58:59.000,131.721,-35.330,2198.000452
7 Jan 2000 20:59:59.000,139.039,-33.486,2444.224925
7 Jan 2000 21:00:59.000,144.645,-32.086,2721.438484
7 Jan 2000 21:01:13.659,145.807,-31.814,2792.759803

Interval Statistics
"Min Elevation",7 Jan 2000 20:55:36.992,90.293,-40.704,1774.110629
"Max Elevation",7 Jan 2000 20:49:59.623,34.745,-31.804,2795.571419
"Mean Elevation",,,-35.858,
"Min Range",7 Jan 2000 20:55:36.992,90.293,-40.704,1774.110629
"Max Range",7 Jan 2000 20:49:59.623,34.745,-31.804,2795.571419
"Mean Range",,,,2236.167433

"Time (UTCG)","Azimuth (deg)","Elevation (deg)","Range (km)"
7 Jan 2000 22:39:12.897,19.749,-31.797,2797.528069
7 Jan 2000 22:40:12.000,22.695,-33.348,2466.815662
7 Jan 2000 22:41:12.000,26.861,-35.810,2146.489567
7 Jan 2000 22:42:12.000,32.965,-39.438,1851.080547
7 Jan 2000 22:43:12.000,42.419,-44.387,1595.777421
7 Jan 2000 22:44:12.000,57.668,-50.120,1403.755397
7 Jan 2000 22:45:12.000,80.994,-54.292,1304.094756
7 Jan 2000 22:46:12.000,108.157,-53.626,1318.329527
7 Jan 2000 22:47:12.000,129.532,-48.739,1443.118522
7 Jan 2000 22:48:12.000,143.110,-43.064,1653.335196
7 Jan 2000 22:49:12.000,151.581,-38.426,1920.629736
7 Jan 2000 22:50:12.000,157.132,-35.103,2223.856031
7 Jan 2000 22:51:12.000,160.975,-32.883,2549.453110
7 Jan 2000 22:51:53.381,162.985,-31.851,2782.514872

Interval Statistics
"Min Elevation",7 Jan 2000 22:45:34.716,91.393,-54.703,1295.621171
"Max Elevation",7 Jan 2000 22:39:12.897,19.749,-31.797,2797.528069
"Mean Elevation",,,-40.920,
"Min Range",7 Jan 2000 22:45:34.715,91.393,-54.703,1295.621171
"Max Range",7 Jan 2000 22:39:12.897,19.749,-31.797,2797.528069
"Mean Range",,,,1961.198458

"Time (UTCG)","Azimuth (deg)","Elevation (deg)","Range (km)"
8 Jan 2000 00:27:50.631,349.940,-31.801,2796.507299
8 Jan 2000 00:28:50.000,347.887,-33.461,2448.214691
8 Jan 2000 00:29:50.000,344.941,-36.187,2108.715560
8 Jan 2000 00:30:50.000,340.462,-40.422,1790.382899
8 Jan 2000 00:31:50.000,332.996,-46.714,1508.094323
8 Jan 2000 00:32:50.000,318.957,-55.129,1287.045524
8 Jan 2000 00:33:50.000,290.613,-62.855,1163.611814
8 Jan 2000 00:34:50.000,250.411,-62.390,1169.574373
8 Jan 2000 00:35:50.000,223.656,-54.338,1303.143374
8 Jan 2000 00:36:50.000,210.450,-46.068,1530.918898
8 Jan 2000 00:37:50.000,203.359,-39.975,1817.224813
8 Jan 2000 00:38:50.000,199.076,-35.894,2137.921457
8 Jan 2000 00:39:50.000,196.251,-33.277,2478.832149
8 Jan 2000 00:40:40.138,194.552,-31.886,2773.133263

Interval Statistics
"Min Elevation",8 Jan 2000 00:34:17.363,272.138,-64.018,1149.377713
"Max Elevation",8 Jan 2000 00:27:50.631,349.940,-31.801,2796.507299
"Mean Elevation",,,-43.600,
"Min Range",8 Jan 2000 00:34:17.363,272.137,-64.018,1149.377713
"Max Range",8 Jan 2000 00:27:50.631,349.940,-31.801,2796.507299
"Mean Range",,,,1879.522888

"Time (UTCG)","Azimuth (deg)","Elevation (deg)","Range (km)"
8 Jan 2000 02:18:25.209,299.715,-31.823,2790.109795
8 Jan 2000 02:19:25.000,291.711,-32.414,2644.972462
8 Jan 2000 02:20:25.000,282.761,-32.872,2551.559122
8 Jan 2000 02:21:25.000,273.253,-33.061,2516.543025
8 Jan 2000 02:22:25.000,263.710,-32.920,2542.375618
8 Jan 2000 02:23:25.000,254.667,-32.496,2627.093077
8 Jan 2000 02:24:25.000,246.513,-31.916,2764.932888
8 Jan 2000 02:24:29.355,245.962,-31.872,2776.799240

Interval Statistics
"Min Elevation",8 Jan 2000 02:21:29.543,272.525,-33.062,2516.367570
"Max Elevation",8 Jan 2000 02:18:25.209,299.715,-31.823,2790.109795
"Mean Elevation",,,-32.422,
"Min Range",8 Jan 2000 02:21:29.542,272.525,-33.062,2516.367570
"Max Range",8 Jan 2000 02:18:25.209,299.715,-31.823,2790.109795
"Mean Range",,,,2651.798153

"Time (UTCG)","Azimuth (deg)","Elevation (deg)","Range (km)"
8 Jan 2000 14:12:00.409,285.585,-31.864,2778.882127
8 Jan 2000 14:13:00.000,277.250,-32.215,2690.177989
8 Jan 2000 14:14:00.000,268.374,-32.365,2655.703207
8 Jan 2000 14:15:00.000,259.443,-32.265,2678.577187
8 Jan 2000 14:16:00.000,250.904,-31.945,2757.381011
8 Jan 2000 14:16:16.525,248.670,-31.830,2788.336796

Interval Statistics
"Min Elevation",8 Jan 2000 14:14:06.118,267.458,-32.367,2655.403407
"Max Elevation",8 Jan 2000 14:16:16.525,248.670,-31.830,2788.336796
"Mean Elevation",,,-32.081,
"Min Range",8 Jan 2000 14:14:06.117,267.458,-32.367,2655.403407
"Max Range",8 Jan 2000 14:16:16.525,248.670,-31.830,2788.336796
"Mean Range",,,,2724.843053

"Time (UTCG)","Azimuth (deg)","Elevation (deg)","Range (km)"
8 Jan 2000 15:54:53.018,342.370,-31.887,2772.746223
8 Jan 2000 15:55:53.000,339.772,-33.597,2426.505915
8 Jan 2000 15:56:53.000,336.066,-36.330,2094.918530
8 Jan 2000 15:57:53.000,330.462,-40.467,1787.763985
8 Jan 2000 15:58:53.000,321.320,-46.337,1521.272592
8 Jan 2000 15:59:53.000,305.229,-53.483,1321.447440
8 Jan 2000 16:00:53.000,277.761,-58.750,1222.259064
8 Jan 2000 16:01:53.000,245.282,-57.201,1248.291975
8 Jan 2000 16:02:53.000,222.708,-50.540,1392.469548
8 Jan 2000 16:03:53.000,209.994,-43.738,1623.223845
8 Jan 2000 16:04:53.000,202.558,-38.590,1908.804480
8 Jan 2000 16:05:53.000,197.838,-35.072,2227.463174
8 Jan 2000 16:06:53.000,194.623,-32.796,2566.039738
8 Jan 2000 16:07:32.575,193.021,-31.801,2796.297541

Interval Statistics
"Min Elevation",8 Jan 2000 16:01:10.816,267.819,-59.110,1216.533311
"Max Elevation",8 Jan 2000 16:07:32.575,193.021,-31.801,2796.297541
"Mean Elevation",,,-42.185,
"Min Range",8 Jan 2000 16:01:10.816,267.819,-59.110,1216.533312
"Max Range",8 Jan 2000 16:07:32.575,193.021,-31.801,2796.297541
"Mean Range",,,,1922.107432

"Time (UTCG)","Azimuth (deg)","Elevation (deg)","Range (km)"
8 Jan 2000 17:43:24.342,14.912,-31.854,2781.589936
8 Jan 2000 17:44:24.000,17.646,-33.493,2442.949601
8 Jan 2000 17:45:24.000,21.507,-36.100,2117.202443
8 Jan 2000 17:46:24.000,27.243,-40.000,1815.646064
8 Jan 2000 17:47:24.000,36.362,-45.454,1553.644308
8 Jan 2000 17:48:24.000,51.797,-52.009,1355.357825
8 Jan 2000 17:49:24.000,77.065,-56.984,1252.133411
8 Jan 2000 17:50:24.000,107.367,-56.132,1267.689620
8 Jan 2000 17:51:24.000,130.004,-50.334,1397.951603
8 Jan 2000 17:52:24.000,143.447,-43.929,1614.990120
8 Jan 2000 17:53:24.000,151.484,-38.879,1888.506899
8 Jan 2000 17:54:24.000,156.625,-35.342,2196.749788
8 Jan 2000 17:55:24.000,160.132,-33.008,2526.183243
8 Jan 2000 17:56:11.683,162.193,-31.797,2797.525168

Interval Statistics
"Min Elevation",8 Jan 2000 17:49:46.372,88.533,-57.473,1243.541972
"Max Elevation",8 Jan 2000 17:56:11.683,162.193,-31.797,2797.525168
"Mean Elevation",,,-41.808,
"Min Range",8 Jan 2000 17:49:46.372,88.533,-57.473,1243.541971
"Max Range",8 Jan 2000 17:56:11.683,162.193,-31.797,2797.525168
"Mean Range",,,,1929.151431

"Time (UTCG)","Azimuth (deg)","Elevation (deg)","Range (km)"
8 Jan 2000 19:34:01.030,33.554,-31.816,2792.137204
8 Jan 2000 19:35:01.000,38.748,-33.116,2506.808708
8 Jan 2000 19:36:01.000,45.537,-34.888,2249.345099
8 Jan 2000 19:37:01.000,54.444,-37.027,2031.531228
8 Jan 2000 19:38:01.000,65.918,-39.180,1868.080614
8 Jan 2000 19:39:01.000,79.865,-40.694,1774.642021
8 Jan 2000 19:40:01.000,95.082,-40.906,1762.676397
8 Jan 2000 19:41:01.000,109.562,-39.708,1833.794982
8 Jan 2000 19:42:01.000,121.783,-37.661,1978.831933
8 Jan 2000 19:43:01.000,131.379,-35.469,2182.676457
8 Jan 2000 19:44:01.000,138.709,-33.575,2429.996924
8 Jan 2000 19:45:01.000,144.303,-32.139,2708.216329
8 Jan 2000 19:45:18.931,145.709,-31.803,2795.895843

Interval Statistics
"Min Elevation",8 Jan 2000 19:39:39.515,89.609,-41.004,1757.243852
"Max Elevation",8 Jan 2000 19:45:18.931,145.709,-31.803,2795.895843
"Mean Elevation",,,-35.999,
"Min Range",8 Jan 2000 19:39:39.515,89.609,-41.004,1757.243852
"Max Range",8 Jan 2000 19:45:18.931,145.709,-31.803,2795.895843
"Mean Range",,,,2224.202595

"Time (UTCG)","Azimuth (deg)","Elevation (deg)","Range (km)"
8 Jan 2000 21:24:03.442,30.491,-31.799,2796.939182
8 Jan 2000 21:25:03.000,35.079,-33.168,2497.577568
8 Jan 2000 21:26:03.000,41.236,-35.136,2220.037563
8 Jan 2000 21:27:03.000,49.581,-37.673,1977.903519
8 Jan 2000 21:28:03.000,60.873,-40.487,1786.603732
8 Jan 2000 21:29:03.000,75.510,-42.824,1664.514920
8 Jan 2000 21:30:03.000,92.510,-43.634,1627.757630
8 Jan 2000 21:31:03.000,109.223,-42.455,1682.097979
8 Jan 2000 21:32:03.000,123.233,-39.941,1819.272781
8 Jan 2000 21:33:03.000,133.905,-37.136,2022.148359
8 Jan 2000 21:34:03.000,141.774,-34.698,2272.676988
8 Jan 2000 21:35:03.000,147.596,-32.847,2556.233921
8 Jan 2000 21:35:48.906,151.057,-31.828,2788.791847

Interval Statistics
"Min Elevation",8 Jan 2000 21:29:57.136,90.812,-43.644,1627.316089
"Max Elevation",8 Jan 2000 21:24:03.442,30.491,-31.799,2796.939182
"Mean Elevation",,,-37.202,
"Min Range",8 Jan 2000 21:29:57.136,90.812,-43.644,1627.316089
"Max Range",8 Jan 2000 21:24:03.442,30.491,-31.799,2796.939182
"Mean Range",,,,2131.735076

"Time (UTCG)","Azimuth (deg)","Elevation (deg)","Range (km)"
8 Jan 2000 23:12:49.974,8.127,-31.798,2797.360652
8 Jan 2000 23:13:49.000,9.168,-33.468,2447.141883
8 Jan 2000 23:14:49.000,10.688,-36.266,2101.077943
8 Jan 2000 23:15:49.000,13.040,-40.734,1772.393952
8 Jan 2000 23:16:49.000,17.117,-47.732,1474.265419
8 Jan 2000 23:17:49.000,25.678,-58.244,1230.506787
8 Jan 2000 23:18:49.000,51.062,-71.294,1079.722713
8 Jan 2000 23:19:49.000,120.042,-73.714,1062.891995
8 Jan 2000 23:20:49.000,154.438,-61.181,1185.848761
8 Jan 2000 23:21:49.000,165.042,-49.810,1412.276703
8 Jan 2000 23:22:49.000,169.791,-42.075,1700.820756
8 Jan 2000 23:23:49.000,172.445,-37.110,2024.397051
8 Jan 2000 23:24:49.000,174.133,-33.987,2367.872673
8 Jan 2000 23:25:49.000,175.299,-32.080,2722.830342
8 Jan 2000 23:25:58.152,175.446,-31.869,2777.640538

Interval Statistics
"Min Elevation",8 Jan 2000 23:19:25.923,91.769,-75.550,1051.956272
"Max Elevation",8 Jan 2000 23:12:49.974,8.127,-31.798,2797.360652
"Mean Elevation",,,-45.424,
"Min Range",8 Jan 2000 23:19:25.923,91.769,-75.550,1051.956272
"Max Range",8 Jan 2000 23:12:49.974,8.127,-31.798,2797.360652
"Mean Range",,,,1877.136545

"Time (UTCG)","Azimuth (deg)","Elevation (deg)","Range (km)"
9 Jan 2000 01:01:45.647,332.373,-31.806,2794.999054
9 Jan 2000 01:02:45.000,327.607,-33.210,2490.198922
9 Jan 2000 01:03:45.000,321.156,-35.241,2208.016298
9 Jan 2000 01:04:45.000,312.369,-37.846,1964.266598
9 Jan 2000 01:05:45.000,300.460,-40.674,1775.796192
9 Jan 2000 01:06:45.000,285.139,-42.873,1662.205245
9 Jan 2000 01:07:45.000,267.726,-43.369,1639.495603
9 Jan 2000 01:08:45.000,251.126,-41.867,1711.316182
9 Jan 2000 01:09:45.000,237.576,-39.203,1866.521391
9 Jan 2000 01:10:45.000,227.417,-36.423,2086.087782
9 Jan 2000 01:11:45.000,219.980,-34.103,2351.387918
9 Jan 2000 01:12:45.000,214.492,-32.400,2647.917259
9 Jan 2000 01:13:08.852,212.715,-31.889,2772.079499

Interval Statistics
"Min Elevation",9 Jan 2000 01:07:29.246,272.348,-43.444,1636.172347
"Max Elevation",9 Jan 2000 01:01:45.647,332.373,-31.806,2794.999054
"Mean Elevation",,,-36.993,
"Min Range",9 Jan 2000 01:07:29.246,272.348,-43.444,1636.172347
"Max Range",9 Jan 2000 01:01:45.647,332.373,-31.806,2794.999054
"Mean Range",,,,2151.560611

"Time (UTCG)","Azimuth (deg)","Elevation (deg)","Range (km)"
9 Jan 2000 14:41:48.949,317.537,-31.887,2772.682812
9 Jan 2000 14:42:48.000,311.518,-33.099,2509.790224
9 Jan 2000 14:43:48.000,303.707,-34.655,2278.057087
9 Jan 2000 14:44:48.000,293.844,-36.331,2094.769390
9 Jan 2000 14:45:48.000,281.889,-37.719,1974.241101
9 Jan 2000 14:46:48.000,268.475,-38.314,1928.784591
9 Jan 2000 14:47:48.000,254.955,-37.851,1963.842679
9 Jan 2000 14:48:48.000,242.739,-36.538,2075.287059
9 Jan 2000 14:49:48.000,232.570,-34.870,2251.515230
9 Jan 2000 14:50:48.000,224.479,-33.280,2478.266188
9 Jan 2000 14:51:48.000,218.142,-32.002,2742.407649
9 Jan 2000 14:51:58.970,217.143,-31.810,2793.873420

Interval Statistics
"Min Elevation",9 Jan 2000 14:46:51.923,267.578,-38.317,1928.610596
"Max Elevation",9 Jan 2000 14:51:58.970,217.143,-31.810,2793.873420
"Mean Elevation",,,-34.863,
"Min Range",9 Jan 2000 14:46:51.923,267.578,-38.317,1928.610596
"Max Range",9 Jan 2000 14:51:58.970,217.143,-31.810,2793.873420
"Mean Range",,,,2321.959786

"Time (UTCG)","Azimuth (deg)","Elevation (deg)","Range (km)"
9 Jan 2000 16:28:03.923,358.152,-31.876,2775.748764
9 Jan 2000 16:29:03.000,358.191,-33.628,2421.636944
9 Jan 2000 16:30:03.000,358.239,-36.578,2071.636823
9 Jan 2000 16:31:03.000,358.303,-41.344,1738.688064
9 Jan 2000 16:32:03.000,358.406,-48.974,1436.160345
9 Jan 2000 16:33:03.000,358.626,-60.968,1188.848407
9 Jan 2000 16:34:03.000,359.594,-78.364,1038.036331
9 Jan 2000 16:35:03.000,176.100,-81.093,1027.642630
9 Jan 2000 16:36:03.000,177.488,-63.028,1161.425408
9 Jan 2000 16:37:03.000,177.733,-50.325,1398.213231
9 Jan 2000 16:38:03.000,177.833,-42.197,1694.748715
9 Jan 2000 16:39:03.000,177.883,-37.113,2024.162598
9 Jan 2000 16:40:03.000,177.911,-33.959,2371.910134
9 Jan 2000 16:41:03.000,177.926,-32.051,2730.036857
9 Jan 2000 16:41:14.120,177.927,-31.798,2797.145951

Interval Statistics
"Min Elevation",9 Jan 2000 16:34:37.095,88.086,-89.688,1013.278462
"Max Elevation",9 Jan 2000 16:41:14.120,177.927,-31.798,2797.145951
"Mean Elevation",,,-46.886,
"Min Range",9 Jan 2000 16:34:37.095,88.086,-89.688,1013.278462
