Satellite-POLMOL11-To-Place-POL_Mid_Access.csv

"Access","Start Time (UTCG)","Stop Time (UTCG)","Duration (sec)"
1,1 Jan 2000 12:29:05.199,1 Jan 2000 23:28:41.346,39576.148
2,2 Jan 2000 03:13:52.545,2 Jan 2000 08:39:25.064,19532.519
3,2 Jan 2000 12:24:33.777,2 Jan 2000 23:24:09.925,39576.147
4,3 Jan 2000 03:09:20.993,3 Jan 2000 08:34:53.524,19532.531
5,3 Jan 2000 12:20:02.356,3 Jan 2000 23:19:38.504,39576.148
6,4 Jan 2000 03:04:49.439,4 Jan 2000 08:30:21.985,19532.546
7,4 Jan 2000 12:15:30.935,4 Jan 2000 23:15:07.082,39576.148
8,5 Jan 2000 03:00:17.885,5 Jan 2000 08:25:50.449,19532.563
9,5 Jan 2000 12:10:59.513,5 Jan 2000 23:10:35.661,39576.148
10,6 Jan 2000 02:55:46.331,6 Jan 2000 08:21:18.915,19532.584
11,6 Jan 2000 12:06:28.092,6 Jan 2000 23:06:04.240,39576.148
12,7 Jan 2000 02:51:14.777,7 Jan 2000 08:16:47.382,19532.605
13,7 Jan 2000 12:01:56.671,7 Jan 2000 23:01:32.819,39576.148
14,8 Jan 2000 02:46:43.225,8 Jan 2000 08:12:15.852,19532.627
15,8 Jan 2000 11:57:25.250,8 Jan 2000 22:57:01.398,39576.148
16,9 Jan 2000 02:42:11.674,9 Jan 2000 08:07:44.322,19532.648
17,9 Jan 2000 11:52:53.829,9 Jan 2000 22:52:29.977,39576.148
18,10 Jan 2000 02:37:40.126,10 Jan 2000 08:03:12.792,19532.665
19,10 Jan 2000 11:48:22.409,10 Jan 2000 22:47:58.557,39576.148
20,11 Jan 2000 02:33:08.581,11 Jan 2000 07:58:41.261,19532.680
21,11 Jan 2000 11:43:50.988,11 Jan 2000 22:43:27.136,39576.148
22,12 Jan 2000 02:28:37.036,12 Jan 2000 07:54:09.727,19532.691
23,12 Jan 2000 11:39:19.567,12 Jan 2000 22:38:55.715,39576.148
24,13 Jan 2000 02:24:05.493,13 Jan 2000 07:49:38.191,19532.698
25,13 Jan 2000 11:34:48.146,13 Jan 2000 22:34:24.294,39576.148
26,14 Jan 2000 02:19:33.949,14 Jan 2000 07:45:06.653,19532.704
27,14 Jan 2000 11:30:16.725,14 Jan 2000 22:29:52.873,39576.148
28,15 Jan 2000 02:15:02.404,15 Jan 2000 07:40:35.113,19532.709
29,15 Jan 2000 11:25:45.304,15 Jan 2000 22:25:21.452,39576.148
30,16 Jan 2000 02:10:30.856,16 Jan 2000 07:36:03.572,19532.717
31,16 Jan 2000 11:21:13.883,16 Jan 2000 22:20:50.031,39576.148
32,17 Jan 2000 02:05:59.304,17 Jan 2000 07:31:32.032,19532.728
33,17 Jan 2000 11:16:42.462,17 Jan 2000 22:16:18.609,39576.148
34,18 Jan 2000 02:01:27.749,18 Jan 2000 07:27:00.495,19532.746
35,18 Jan 2000 11:12:11.040,18 Jan 2000 22:11:47.188,39576.148
36,19 Jan 2000 01:56:56.192,19 Jan 2000 07:22:28.961,19532.769
37,19 Jan 2000 11:07:39.619,19 Jan 2000 22:07:15.767,39576.148
38,20 Jan 2000 01:52:24.636,20 Jan 2000 07:17:57.432,19532.796
39,20 Jan 2000 11:03:08.198,20 Jan 2000 22:02:44.346,39576.148
40,21 Jan 2000 01:47:53.081,21 Jan 2000 07:13:25.905,19532.824
41,21 Jan 2000 10:58:36.777,21 Jan 2000 21:58:12.925,39576.148
42,22 Jan 2000 01:43:21.530,22 Jan 2000 07:08:54.379,19532.849
43,22 Jan 2000 10:54:05.356,22 Jan 2000 21:53:41.504,39576.148
44,23 Jan 2000 01:38:49.983,23 Jan 2000 07:04:22.852,19532.869
45,23 Jan 2000 10:49:33.936,23 Jan 2000 21:49:10.084,39576.148
46,24 Jan 2000 01:34:18.439,24 Jan 2000 06:59:51.322,19532.883
47,24 Jan 2000 10:45:02.515,24 Jan 2000 21:44:38.663,39576.148
48,25 Jan 2000 01:29:46.897,25 Jan 2000 06:55:19.789,19532.892
49,25 Jan 2000 10:40:31.094,25 Jan 2000 21:40:07.242,39576.148
50,26 Jan 2000 01:25:15.356,26 Jan 2000 06:50:48.253,19532.897
51,26 Jan 2000 10:35:59.674,26 Jan 2000 21:35:35.822,39576.148
52,27 Jan 2000 01:20:43.813,27 Jan 2000 06:46:16.714,19532.901
53,27 Jan 2000 10:31:28.253,27 Jan 2000 21:31:04.401,39576.148
54,28 Jan 2000 01:16:12.269,28 Jan 2000 06:41:45.175,19532.906
55,28 Jan 2000 10:26:56.832,28 Jan 2000 21:26:32.979,39576.148
56,29 Jan 2000 01:11:40.722,29 Jan 2000 06:37:13.635,19532.913
57,29 Jan 2000 10:22:25.410,29 Jan 2000 21:22:01.558,39576.148
58,30 Jan 2000 01:07:09.174,30 Jan 2000 06:32:42.097,19532.923
59,30 Jan 2000 10:17:53.989,30 Jan 2000 21:17:30.137,39576.148
60,31 Jan 2000 01:02:37.624,31 Jan 2000 06:28:10.559,19532.935
61,31 Jan 2000 10:13:22.568,31 Jan 2000 21:12:58.716,39576.148
62,1 Feb 2000 00:58:06.073,1 Feb 2000 06:23:39.024,19532.951
63,1 Feb 2000 10:08:51.147,1 Feb 2000 21:08:27.295,39576.148
64,2 Feb 2000 00:53:34.522,2 Feb 2000 06:19:07.491,19532.969
65,2 Feb 2000 10:04:19.726,2 Feb 2000 21:03:55.874,39576.148
66,3 Feb 2000 00:49:02.972,3 Feb 2000 06:14:35.960,19532.988
67,3 Feb 2000 09:59:48.305,3 Feb 2000 20:59:24.453,39576.148
68,4 Feb 2000 00:44:31.423,4 Feb 2000 06:10:04.431,19533.008
69,4 Feb 2000 09:55:16.884,4 Feb 2000 20:54:53.032,39576.148
70,5 Feb 2000 00:39:59.875,5 Feb 2000 06:05:32.902,19533.027
71,5 Feb 2000 09:50:45.464,5 Feb 2000 20:50:21.612,39576.148
72,6 Feb 2000 00:35:28.330,6 Feb 2000 06:01:01.373,19533.043
73,6 Feb 2000 09:46:14.043,6 Feb 2000 20:45:50.191,39576.148
74,7 Feb 2000 00:30:56.788,7 Feb 2000 05:56:29.843,19533.055
75,7 Feb 2000 09:41:42.623,7 Feb 2000 20:41:18.771,39576.148
76,8 Feb 2000 00:26:25.247,8 Feb 2000 05:51:58.311,19533.064
77,8 Feb 2000 09:37:11.202,8 Feb 2000 20:36:47.350,39576.148
78,9 Feb 2000 00:21:53.707,9 Feb 2000 05:47:26.776,19533.069
79,9 Feb 2000 09:32:39.781,9 Feb 2000 20:32:15.929,39576.148
80,10 Feb 2000 00:17:22.167,10 Feb 2000 05:42:55.239,19533.071
81,10 Feb 2000 09:28:08.360,10 Feb 2000 20:27:44.508,39576.148
82,11 Feb 2000 00:12:50.626,11 Feb 2000 05:38:23.699,19533.073
83,11 Feb 2000 09:23:36.940,11 Feb 2000 20:23:13.087,39576.148
84,12 Feb 2000 00:08:19.082,12 Feb 2000 05:33:52.159,19533.077
85,12 Feb 2000 09:19:05.518,12 Feb 2000 20:18:41.666,39576.148
86,13 Feb 2000 00:03:47.535,13 Feb 2000 05:29:20.619,19533.084
87,13 Feb 2000 09:14:34.097,13 Feb 2000 20:14:10.245,39576.148
88,13 Feb 2000 23:59:15.985,14 Feb 2000 05:24:49.081,19533.096
89,14 Feb 2000 09:10:02.676,14 Feb 2000 20:09:38.824,39576.148
90,14 Feb 2000 23:54:44.433,15 Feb 2000 05:20:17.546,19533.113
91,15 Feb 2000 09:05:31.255,15 Feb 2000 20:05:07.403,39576.148
92,15 Feb 2000 23:50:12.880,16 Feb 2000 05:15:46.015,19533.134
93,16 Feb 2000 09:00:59.834,16 Feb 2000 20:00:35.982,39576.148
94,16 Feb 2000 23:45:41.329,17 Feb 2000 05:11:14.486,19533.158
95,17 Feb 2000 08:56:28.413,17 Feb 2000 19:56:04.561,39576.148
96,17 Feb 2000 23:41:09.780,18 Feb 2000 05:06:42.960,19533.179
97,18 Feb 2000 08:51:56.993,18 Feb 2000 19:51:33.141,39576.148
98,18 Feb 2000 23:36:38.236,19 Feb 2000 05:02:11.433,19533.197
99,19 Feb 2000 08:47:25.572,19 Feb 2000 19:47:01.720,39576.148
100,19 Feb 2000 23:32:06.694,20 Feb 2000 04:57:39.903,19533.209
101,20 Feb 2000 08:42:54.152,20 Feb 2000 19:42:30.300,39576.148
102,20 Feb 2000 23:27:35.155,21 Feb 2000 04:53:08.371,19533.216
103,21 Feb 2000 08:38:22.731,21 Feb 2000 19:37:58.879,39576.148
104,21 Feb 2000 23:23:03.617,22 Feb 2000 04:48:36.835,19533.218
105,22 Feb 2000 08:33:51.310,22 Feb 2000 19:33:27.458,39576.148
106,22 Feb 2000 23:18:32.078,23 Feb 2000 04:44:05.296,19533.218
107,23 Feb 2000 08:29:19.890,23 Feb 2000 19:28:56.038,39576.148
108,23 Feb 2000 23:14:00.538,24 Feb 2000 04:39:33.756,19533.218
109,24 Feb 2000 08:24:48.469,24 Feb 2000 19:24:24.617,39576.148
110,24 Feb 2000 23:09:28.995,25 Feb 2000 04:35:02.215,19533.220
111,25 Feb 2000 08:20:17.048,25 Feb 2000 19:19:53.195,39576.148
112,25 Feb 2000 23:04:57.450,26 Feb 2000 04:30:30.674,19533.224
113,26 Feb 2000 08:15:45.627,26 Feb 2000 19:15:21.774,39576.148
114,26 Feb 2000 23:00:25.904,27 Feb 2000 04:25:59.135,19533.232
115,27 Feb 2000 08:11:14.205,27 Feb 2000 19:10:50.353,39576.148
116,27 Feb 2000 22:55:54.356,28 Feb 2000 04:21:27.598,19533.242
117,28 Feb 2000 08:06:42.784,28 Feb 2000 19:06:18.932,39576.148
118,28 Feb 2000 22:51:22.808,29 Feb 2000 04:16:56.063,19533.255
119,29 Feb 2000 08:02:11.363,29 Feb 2000 19:01:47.511,39576.148
120,29 Feb 2000 22:46:51.260,1 Mar 2000 04:12:24.530,19533.270
121,1 Mar 2000 07:57:39.942,1 Mar 2000 18:57:16.090,39576.148
122,1 Mar 2000 22:42:19.713,2 Mar 2000 04:07:52.998,19533.285
123,2 Mar 2000 07:53:08.522,2 Mar 2000 18:52:44.670,39576.148
124,2 Mar 2000 22:37:48.168,3 Mar 2000 04:03:21.468,19533.300
125,3 Mar 2000 07:48:37.101,3 Mar 2000 18:48:13.249,39576.148
126,3 Mar 2000 22:33:16.625,4 Mar 2000 03:58:49.937,19533.312
127,4 Mar 2000 07:44:05.680,4 Mar 2000 18:43:41.829,39576.148
128,4 Mar 2000 22:28:45.085,5 Mar 2000 03:54:18.405,19533.321
129,5 Mar 2000 07:39:34.260,5 Mar 2000 18:39:10.408,39576.148
130,5 Mar 2000 22:24:13.546,6 Mar 2000 03:49:46.872,19533.326
131,6 Mar 2000 07:35:02.839,6 Mar 2000 18:34:38.987,39576.148
132,6 Mar 2000 22:19:42.008,7 Mar 2000 03:45:15.336,19533.327
133,7 Mar 2000 07:30:31.419,7 Mar 2000 18:30:07.567,39576.148
134,7 Mar 2000 22:15:10.471,8 Mar 2000 03:40:43.797,19533.326
135,8 Mar 2000 07:25:59.998,8 Mar 2000 18:25:36.146,39576.148
136,8 Mar 2000 22:10:38.932,9 Mar 2000 03:36:12.255,19533.323
137,9 Mar 2000 07:21:28.577,9 Mar 2000 18:21:04.725,39576.148
138,9 Mar 2000 22:06:07.391,10 Mar 2000 03:31:40.713,19533.322
139,10 Mar 2000 07:16:57.156,10 Mar 2000 18:16:33.304,39576.148
140,10 Mar 2000 22:01:35.846,11 Mar 2000 03:27:09.170,19533.324
141,11 Mar 2000 07:12:25.735,11 Mar 2000 18:12:01.883,39576.148
142,11 Mar 2000 21:57:04.299,12 Mar 2000 03:22:37.630,19533.331
143,12 Mar 2000 07:07:54.314,12 Mar 2000 18:07:30.461,39576.148
144,12 Mar 2000 21:52:32.749,13 Mar 2000 03:18:06.092,19533.343
145,13 Mar 2000 07:03:22.893,13 Mar 2000 18:02:59.040,39576.148
146,13 Mar 2000 21:48:01.198,14 Mar 2000 03:13:34.558,19533.360
147,14 Mar 2000 06:58:51.471,14 Mar 2000 17:58:27.619,39576.148
148,14 Mar 2000 21:43:29.648,15 Mar 2000 03:09:03.026,19533.378
149,15 Mar 2000 06:54:20.051,15 Mar 2000 17:53:56.198,39576.148
150,15 Mar 2000 21:38:58.101,16 Mar 2000 03:04:31.496,19533.396
151,16 Mar 2000 06:49:48.630,16 Mar 2000 17:49:24.778,39576.148
152,16 Mar 2000 21:34:26.557,17 Mar 2000 02:59:59.967,19533.410
153,17 Mar 2000 06:45:17.209,17 Mar 2000 17:44:53.357,39576.148
154,17 Mar 2000 21:29:55.016,18 Mar 2000 02:55:28.436,19533.420
155,18 Mar 2000 06:40:45.789,18 Mar 2000 17:40:21.937,39576.148
156,18 Mar 2000 21:25:23.477,19 Mar 2000 02:50:56.902,19533.424
157,19 Mar 2000 06:36:14.368,19 Mar 2000 17:35:50.516,39576.148
158,19 Mar 2000 21:20:51.940,20 Mar 2000 02:46:25.364,19533.424
159,20 Mar 2000 06:31:42.948,20 Mar 2000 17:31:19.095,39576.148
160,20 Mar 2000 21:16:20.403,21 Mar 2000 02:41:53.824,19533.421
161,21 Mar 2000 06:27:11.527,21 Mar 2000 17:26:47.675,39576.148
162,21 Mar 2000 21:11:48.864,22 Mar 2000 02:37:22.282,19533.418
163,22 Mar 2000 06:22:40.106,22 Mar 2000 17:22:16.253,39576.148
164,22 Mar 2000 21:07:17.322,23 Mar 2000 02:32:50.738,19533.416
165,23 Mar 2000 06:18:08.685,23 Mar 2000 17:17:44.832,39576.148
166,23 Mar 2000 21:02:45.778,24 Mar 2000 02:28:19.195,19533.417
167,24 Mar 2000 06:13:37.264,24 Mar 2000 17:13:13.411,39576.148
168,24 Mar 2000 20:58:14.233,25 Mar 2000 02:23:47.653,19533.421
169,25 Mar 2000 06:09:05.842,25 Mar 2000 17:08:41.990,39576.148
170,25 Mar 2000 20:53:42.685,26 Mar 2000 02:19:16.113,19533.428
171,26 Mar 2000 06:04:34.421,26 Mar 2000 17:04:10.569,39576.148
172,26 Mar 2000 20:49:11.137,27 Mar 2000 02:14:44.575,19533.438
173,27 Mar 2000 06:00:03.000,27 Mar 2000 16:59:39.148,39576.148
174,27 Mar 2000 20:44:39.589,28 Mar 2000 02:10:13.040,19533.451
175,28 Mar 2000 05:55:31.579,28 Mar 2000 16:55:07.727,39576.148
176,28 Mar 2000 20:40:08.042,29 Mar 2000 02:05:41.505,19533.464
177,29 Mar 2000 05:51:00.158,29 Mar 2000 16:50:36.306,39576.148
178,29 Mar 2000 20:35:36.496,30 Mar 2000 02:01:09.972,19533.476
179,30 Mar 2000 05:46:28.738,30 Mar 2000 16:46:04.885,39576.148
180,30 Mar 2000 20:31:04.953,31 Mar 2000 01:56:38.440,19533.487
181,31 Mar 2000 05:41:57.317,31 Mar 2000 16:41:33.465,39576.148
182,31 Mar 2000 20:26:33.411,1 Apr 2000 01:52:06.906,19533.495
183,1 Apr 2000 05:37:25.896,1 Apr 2000 12:00:00.000,22954.104

Statistics
"Min Duration",2,2 Jan 2000 03:13:52.545,2 Jan 2000 08:39:25.064,19532.519
"Max Duration",99,19 Feb 2000 08:47:25.572,19 Feb 2000 19:47:01.720,39576.148
"Mean Duration",,,,29518.550
"Total Duration",,,,5401894.739


