Satellite-POLLEO11-Sensor-Sensor9-To-Place-POL_Mid_Access.csv

"Access","Start Time (UTCG)","Stop Time (UTCG)","Duration (sec)"
1,1 Jan 2000 17:25:29.253,1 Jan 2000 17:37:56.213,746.960
2,1 Jan 2000 19:13:43.850,1 Jan 2000 19:26:37.527,773.677
3,1 Jan 2000 21:04:16.224,1 Jan 2000 21:15:39.089,682.865
4,1 Jan 2000 22:54:25.793,1 Jan 2000 23:06:03.749,697.956
5,2 Jan 2000 00:43:16.113,2 Jan 2000 00:56:21.224,785.112
6,2 Jan 2000 02:32:06.238,2 Jan 2000 02:43:52.328,706.090
7,2 Jan 2000 16:12:42.966,2 Jan 2000 16:22:13.357,570.391
8,2 Jan 2000 17:58:31.446,2 Jan 2000 18:11:39.922,788.476
9,2 Jan 2000 19:48:04.575,2 Jan 2000 20:00:18.207,733.632
10,2 Jan 2000 21:38:45.867,2 Jan 2000 21:49:54.972,669.105
11,2 Jan 2000 23:28:15.916,2 Jan 2000 23:40:37.167,741.250
12,3 Jan 2000 01:16:53.278,3 Jan 2000 01:29:58.722,785.444
13,3 Jan 2000 03:06:32.740,3 Jan 2000 03:15:20.467,527.726
14,3 Jan 2000 16:44:26.607,3 Jan 2000 16:56:30.546,723.939
15,3 Jan 2000 18:32:15.272,3 Jan 2000 18:45:16.605,781.334
16,3 Jan 2000 20:22:39.284,3 Jan 2000 20:34:10.901,691.617
17,3 Jan 2000 22:12:58.474,3 Jan 2000 22:24:26.671,688.196
18,4 Jan 2000 00:01:55.304,4 Jan 2000 00:14:54.047,778.742
19,4 Jan 2000 01:50:39.389,4 Jan 2000 02:02:52.502,733.114
20,4 Jan 2000 15:32:10.550,4 Jan 2000 15:40:29.878,499.329
21,4 Jan 2000 17:17:15.284,4 Jan 2000 17:30:18.260,782.976
22,4 Jan 2000 19:06:29.733,4 Jan 2000 19:18:55.348,745.615
23,4 Jan 2000 20:57:12.007,4 Jan 2000 21:08:21.580,669.573
24,4 Jan 2000 22:46:52.748,4 Jan 2000 22:59:01.906,729.158
25,5 Jan 2000 00:35:31.820,5 Jan 2000 00:48:41.416,789.596
26,5 Jan 2000 02:24:52.015,5 Jan 2000 02:34:44.300,592.286
27,5 Jan 2000 16:03:28.532,5 Jan 2000 16:15:02.912,694.380
28,5 Jan 2000 17:50:48.945,5 Jan 2000 18:03:55.838,786.893
29,5 Jan 2000 19:41:02.180,5 Jan 2000 19:52:44.064,701.884
30,5 Jan 2000 21:31:29.765,5 Jan 2000 21:42:49.871,680.106
31,5 Jan 2000 23:20:34.286,5 Jan 2000 23:33:24.690,770.404
32,6 Jan 2000 01:09:14.325,6 Jan 2000 01:21:48.303,753.978
33,6 Jan 2000 03:01:03.057,6 Jan 2000 03:04:00.931,177.873
34,6 Jan 2000 14:51:51.824,6 Jan 2000 14:58:35.451,403.627
35,6 Jan 2000 16:36:02.383,6 Jan 2000 16:48:55.895,773.512
36,6 Jan 2000 18:24:56.228,6 Jan 2000 18:37:33.227,756.999
37,6 Jan 2000 20:15:36.990,6 Jan 2000 20:26:49.546,672.556
38,6 Jan 2000 22:05:28.638,6 Jan 2000 22:17:25.714,717.076
39,6 Jan 2000 23:54:10.783,7 Jan 2000 00:07:21.154,790.371
40,7 Jan 2000 01:43:16.884,7 Jan 2000 01:53:59.847,642.963
41,7 Jan 2000 15:22:35.667,7 Jan 2000 15:33:32.693,657.026
42,7 Jan 2000 17:09:25.094,7 Jan 2000 17:22:35.068,789.974
43,7 Jan 2000 18:59:25.250,7 Jan 2000 19:11:18.489,713.239
44,7 Jan 2000 20:49:59.623,7 Jan 2000 21:01:13.659,674.036
45,7 Jan 2000 22:39:12.897,7 Jan 2000 22:51:53.381,760.485
46,8 Jan 2000 00:27:50.631,8 Jan 2000 00:40:40.138,769.507
47,8 Jan 2000 02:18:25.209,8 Jan 2000 02:24:29.355,364.147
48,8 Jan 2000 14:12:00.409,8 Jan 2000 14:16:16.525,256.116
49,8 Jan 2000 15:54:53.018,8 Jan 2000 16:07:32.575,759.557
50,8 Jan 2000 17:43:24.342,8 Jan 2000 17:56:11.683,767.341
51,8 Jan 2000 19:34:01.030,8 Jan 2000 19:45:18.931,677.902
52,8 Jan 2000 21:24:03.442,8 Jan 2000 21:35:48.906,705.464
53,8 Jan 2000 23:12:49.974,8 Jan 2000 23:25:58.152,788.178
54,9 Jan 2000 01:01:45.647,9 Jan 2000 01:13:08.852,683.205
55,9 Jan 2000 14:41:48.949,9 Jan 2000 14:51:58.970,610.021
56,9 Jan 2000 16:28:03.923,9 Jan 2000 16:41:14.120,790.197
57,9 Jan 2000 18:17:48.825,9 Jan 2000 18:29:54.039,725.215
58,9 Jan 2000 20:08:28.045,9 Jan 2000 20:19:38.315,670.269
59,9 Jan 2000 21:57:50.981,9 Jan 2000 22:10:20.370,749.390
60,9 Jan 2000 23:46:27.989,9 Jan 2000 23:59:28.357,780.368
61,10 Jan 2000 01:36:25.307,10 Jan 2000 01:44:17.008,471.701
62,10 Jan 2000 15:13:47.488,10 Jan 2000 15:26:07.992,740.505
63,10 Jan 2000 17:01:54.326,10 Jan 2000 17:14:50.563,776.237
64,10 Jan 2000 18:52:24.392,10 Jan 2000 19:03:49.764,685.372
65,10 Jan 2000 20:42:37.033,10 Jan 2000 20:54:11.824,694.792
66,10 Jan 2000 22:31:29.225,10 Jan 2000 22:44:32.608,783.383
67,11 Jan 2000 00:20:17.255,11 Jan 2000 00:32:12.388,715.133
68,11 Jan 2000 14:01:09.842,11 Jan 2000 14:10:20.311,550.470
69,11 Jan 2000 15:46:45.637,11 Jan 2000 15:59:52.819,787.182
70,11 Jan 2000 17:36:13.226,11 Jan 2000 17:48:30.585,737.359
71,11 Jan 2000 19:26:55.081,11 Jan 2000 19:38:04.056,668.974
72,11 Jan 2000 21:16:28.379,11 Jan 2000 21:28:45.932,737.553
73,11 Jan 2000 23:05:06.120,11 Jan 2000 23:18:13.225,787.105
74,12 Jan 2000 00:54:38.954,12 Jan 2000 01:03:48.352,549.398
75,12 Jan 2000 14:32:46.194,12 Jan 2000 14:44:41.781,715.587
76,12 Jan 2000 16:20:26.422,12 Jan 2000 16:33:29.708,783.286
77,12 Jan 2000 18:10:47.365,12 Jan 2000 18:22:21.998,694.634
78,12 Jan 2000 20:01:09.293,12 Jan 2000 20:12:34.800,685.506
79,12 Jan 2000 21:50:08.370,12 Jan 2000 22:03:04.735,776.365
80,12 Jan 2000 23:38:51.007,12 Jan 2000 23:51:11.161,740.154
81,13 Jan 2000 13:20:40.985,13 Jan 2000 13:28:34.115,473.129
82,13 Jan 2000 15:05:30.460,13 Jan 2000 15:18:30.969,780.509
83,13 Jan 2000 16:54:38.766,13 Jan 2000 17:07:07.970,749.204
84,13 Jan 2000 18:45:20.847,13 Jan 2000 18:56:31.073,670.226
85,13 Jan 2000 20:35:04.939,13 Jan 2000 20:47:10.348,725.408
86,13 Jan 2000 22:23:44.817,13 Jan 2000 22:36:54.988,790.171
87,14 Jan 2000 00:13:00.203,14 Jan 2000 00:23:09.385,609.181
88,14 Jan 2000 13:51:49.647,14 Jan 2000 14:03:13.427,683.780
89,14 Jan 2000 15:39:00.839,14 Jan 2000 15:52:08.959,788.120
90,14 Jan 2000 17:29:10.282,14 Jan 2000 17:40:55.564,705.282
91,14 Jan 2000 19:19:40.146,14 Jan 2000 19:30:58.149,678.003
92,14 Jan 2000 21:08:47.255,14 Jan 2000 21:21:34.750,767.495
93,14 Jan 2000 22:57:26.408,14 Jan 2000 23:10:05.702,759.295
94,15 Jan 2000 00:48:43.760,15 Jan 2000 00:52:56.647,252.887
95,15 Jan 2000 12:40:28.282,15 Jan 2000 12:46:34.526,366.244
96,15 Jan 2000 14:24:18.617,15 Jan 2000 14:37:08.337,769.721
97,15 Jan 2000 16:13:05.733,15 Jan 2000 16:25:46.046,760.313
98,15 Jan 2000 18:03:45.516,15 Jan 2000 18:14:59.467,673.951
99,15 Jan 2000 19:53:40.511,15 Jan 2000 20:05:33.935,713.424
100,15 Jan 2000 21:42:23.867,15 Jan 2000 21:55:33.862,789.995
101,15 Jan 2000 23:31:26.414,15 Jan 2000 23:42:22.771,656.357
102,16 Jan 2000 13:10:58.555,16 Jan 2000 13:21:42.243,643.688
103,16 Jan 2000 14:57:37.788,16 Jan 2000 15:10:48.150,790.363
104,16 Jan 2000 16:47:33.475,16 Jan 2000 16:59:30.353,716.878
105,16 Jan 2000 18:38:09.561,16 Jan 2000 18:49:22.179,672.618
106,16 Jan 2000 20:27:25.720,16 Jan 2000 20:40:02.890,757.170
107,16 Jan 2000 22:16:03.066,16 Jan 2000 22:28:56.393,773.327
108,17 Jan 2000 00:06:24.147,17 Jan 2000 00:13:05.960,401.812
109,17 Jan 2000 12:00:55.354,17 Jan 2000 12:03:57.988,182.634
110,17 Jan 2000 13:43:10.396,17 Jan 2000 13:55:44.665,754.269
111,17 Jan 2000 15:31:34.396,17 Jan 2000 15:44:24.650,770.254
112,17 Jan 2000 17:22:09.317,17 Jan 2000 17:33:29.301,679.984
113,17 Jan 2000 19:12:14.953,17 Jan 2000 19:23:57.007,702.054
114,17 Jan 2000 21:01:03.090,17 Jan 2000 21:14:10.052,786.962
115,17 Jan 2000 22:49:56.144,17 Jan 2000 23:01:29.999,693.855
116,18 Jan 2000 12:30:13.989,18 Jan 2000 12:40:07.190,593.200
117,18 Jan 2000 14:16:17.482,18 Jan 2000 14:29:27.115,789.633
118,18 Jan 2000 16:05:57.268,18 Jan 2000 16:18:06.226,728.959
119,18 Jan 2000 17:56:37.547,18 Jan 2000 18:07:47.142,669.595
120,18 Jan 2000 19:46:03.611,18 Jan 2000 19:58:29.411,745.800
121,18 Jan 2000 21:34:40.687,18 Jan 2000 21:47:43.549,782.862
122,18 Jan 2000 23:24:29.480,18 Jan 2000 23:32:47.522,498.042
123,19 Jan 2000 13:02:06.125,19 Jan 2000 13:14:19.623,733.497
124,19 Jan 2000 14:50:05.007,19 Jan 2000 15:03:03.626,778.619
125,19 Jan 2000 16:40:32.525,19 Jan 2000 16:52:00.571,688.046
126,19 Jan 2000 18:30:48.146,19 Jan 2000 18:42:19.910,691.764
127,19 Jan 2000 20:19:42.329,19 Jan 2000 20:32:43.770,781.441
128,19 Jan 2000 22:08:28.475,19 Jan 2000 22:20:31.999,723.524
129,20 Jan 2000 11:49:37.672,20 Jan 2000 11:58:26.572,528.900
130,20 Jan 2000 13:35:00.133,20 Jan 2000 13:48:05.669,785.535
131,20 Jan 2000 15:24:21.990,20 Jan 2000 15:36:43.044,741.054
132,20 Jan 2000 17:15:04.177,20 Jan 2000 17:26:13.261,669.084
133,20 Jan 2000 19:04:40.767,20 Jan 2000 19:16:54.588,733.821
134,20 Jan 2000 20:53:19.016,20 Jan 2000 21:06:27.438,788.421
135,20 Jan 2000 22:42:45.871,20 Jan 2000 22:52:15.281,569.410
136,21 Jan 2000 12:21:06.233,21 Jan 2000 12:32:52.812,706.579
137,21 Jan 2000 14:08:37.794,21 Jan 2000 14:21:42.819,785.025
138,21 Jan 2000 15:58:55.446,21 Jan 2000 16:10:33.227,697.781
139,21 Jan 2000 17:49:19.981,21 Jan 2000 18:00:42.963,682.983
140,21 Jan 2000 19:38:21.412,21 Jan 2000 19:51:15.221,773.810
141,21 Jan 2000 21:27:02.783,21 Jan 2000 21:39:29.424,746.641
142,22 Jan 2000 11:09:12.886,22 Jan 2000 11:16:37.156,444.270
143,22 Jan 2000 12:53:45.955,22 Jan 2000 13:06:43.602,777.647
144,22 Jan 2000 14:42:47.937,22 Jan 2000 14:55:20.658,752.721
145,22 Jan 2000 16:33:29.584,22 Jan 2000 16:44:40.692,671.107
146,22 Jan 2000 18:23:17.041,22 Jan 2000 18:35:18.713,721.672
147,22 Jan 2000 20:11:57.844,22 Jan 2000 20:25:08.290,790.446
148,22 Jan 2000 22:01:08.853,22 Jan 2000 22:11:33.748,624.896
149,23 Jan 2000 11:40:11.275,23 Jan 2000 11:51:23.674,672.398
150,23 Jan 2000 13:27:12.971,23 Jan 2000 13:40:22.072,789.101
151,23 Jan 2000 15:17:18.412,23 Jan 2000 15:29:07.183,708.771
152,23 Jan 2000 17:07:50.394,23 Jan 2000 17:19:06.490,676.096
153,23 Jan 2000 18:57:00.186,23 Jan 2000 19:09:44.637,764.452
154,23 Jan 2000 20:45:38.611,23 Jan 2000 20:58:22.739,764.128
155,23 Jan 2000 22:36:34.016,23 Jan 2000 22:41:42.539,308.523
156,24 Jan 2000 10:29:07.827,24 Jan 2000 10:34:30.786,322.958
157,24 Jan 2000 12:12:35.195,24 Jan 2000 12:25:20.682,765.487
158,24 Jan 2000 14:01:15.400,24 Jan 2000 14:13:58.916,763.517
159,24 Jan 2000 15:51:53.959,24 Jan 2000 16:03:09.529,675.570
160,24 Jan 2000 17:41:52.278,24 Jan 2000 17:53:42.108,709.829
161,24 Jan 2000 19:30:36.965,24 Jan 2000 19:43:46.315,789.351
162,24 Jan 2000 21:19:36.274,24 Jan 2000 21:30:45.116,668.842
163,25 Jan 2000 10:59:22.062,25 Jan 2000 11:09:51.434,629.372
164,25 Jan 2000 12:45:50.747,25 Jan 2000 12:59:01.215,790.468
165,25 Jan 2000 14:35:41.757,25 Jan 2000 14:47:42.318,720.561
166,25 Jan 2000 16:26:19.365,25 Jan 2000 16:37:30.782,671.417
167,25 Jan 2000 18:15:38.492,25 Jan 2000 18:28:12.248,753.756
168,25 Jan 2000 20:04:15.594,25 Jan 2000 20:17:12.313,776.718
169,25 Jan 2000 21:54:25.166,25 Jan 2000 22:01:40.219,435.053
170,26 Jan 2000 09:50:42.740,26 Jan 2000 09:50:47.291,4.550
171,26 Jan 2000 11:31:28.152,26 Jan 2000 11:43:56.627,748.475
172,26 Jan 2000 13:19:44.638,26 Jan 2000 13:32:37.650,773.012
173,26 Jan 2000 15:10:17.549,26 Jan 2000 15:21:39.811,682.262
174,26 Jan 2000 17:00:26.348,26 Jan 2000 17:12:05.092,698.744
175,26 Jan 2000 18:49:16.219,26 Jan 2000 19:02:21.722,785.503
176,26 Jan 2000 20:38:06.890,26 Jan 2000 20:49:50.651,703.761
177,27 Jan 2000 10:18:39.806,27 Jan 2000 10:28:14.895,575.088
178,27 Jan 2000 12:04:31.329,27 Jan 2000 12:17:40.074,788.745
179,27 Jan 2000 13:54:05.801,27 Jan 2000 14:06:18.502,732.701
180,27 Jan 2000 15:44:46.923,27 Jan 2000 15:55:56.084,669.161
181,27 Jan 2000 17:34:16.175,27 Jan 2000 17:46:38.326,742.151
182,27 Jan 2000 19:22:53.464,27 Jan 2000 19:35:58.440,784.977
183,27 Jan 2000 21:12:34.659,27 Jan 2000 21:21:16.774,522.115
184,28 Jan 2000 10:50:25.180,28 Jan 2000 11:02:31.090,725.910
185,28 Jan 2000 12:38:15.897,28 Jan 2000 12:51:16.714,780.818
186,28 Jan 2000 14:28:40.635,28 Jan 2000 14:40:11.517,690.882
187,28 Jan 2000 16:18:59.133,28 Jan 2000 16:30:28.007,688.874
188,28 Jan 2000 18:07:55.422,28 Jan 2000 18:20:54.719,779.297
189,28 Jan 2000 19:56:39.886,28 Jan 2000 20:08:51.182,731.296
190,29 Jan 2000 09:38:06.575,29 Jan 2000 09:46:32.027,505.452
191,29 Jan 2000 11:23:14.930,29 Jan 2000 11:36:18.458,783.529
192,29 Jan 2000 13:12:30.870,29 Jan 2000 13:24:55.583,744.713
193,29 Jan 2000 15:03:13.159,29 Jan 2000 15:14:22.595,669.436
194,29 Jan 2000 16:52:53.074,29 Jan 2000 17:05:03.148,730.074
195,29 Jan 2000 18:41:31.963,29 Jan 2000 18:54:41.366,789.403
196,29 Jan 2000 20:30:53.407,29 Jan 2000 20:40:41.342,587.935
197,30 Jan 2000 10:09:26.739,30 Jan 2000 10:21:03.628,696.889
198,30 Jan 2000 11:56:49.396,30 Jan 2000 12:09:55.943,786.546
199,30 Jan 2000 13:47:03.533,30 Jan 2000 13:58:44.582,701.050
200,30 Jan 2000 15:37:30.533,30 Jan 2000 15:48:51.175,680.642
201,30 Jan 2000 17:26:34.428,30 Jan 2000 17:39:25.522,771.094
202,30 Jan 2000 19:15:14.705,30 Jan 2000 19:27:47.298,752.593
203,30 Jan 2000 21:07:14.133,30 Jan 2000 21:09:47.509,153.377
204,31 Jan 2000 08:57:46.541,31 Jan 2000 09:04:38.702,412.162
205,31 Jan 2000 10:42:01.773,31 Jan 2000 10:54:56.157,774.384
206,31 Jan 2000 12:30:57.254,31 Jan 2000 12:43:33.411,756.157
207,31 Jan 2000 14:21:38.225,31 Jan 2000 14:32:50.456,672.231
208,31 Jan 2000 16:11:29.043,31 Jan 2000 16:23:27.016,717.973
209,31 Jan 2000 18:00:10.899,31 Jan 2000 18:13:21.324,790.425
210,31 Jan 2000 19:49:17.926,31 Jan 2000 19:59:57.448,639.522
211,1 Feb 2000 09:28:33.452,1 Feb 2000 09:39:33.636,660.184
212,1 Feb 2000 11:15:25.352,1 Feb 2000 11:28:35.181,789.829
213,1 Feb 2000 13:05:26.579,1 Feb 2000 13:17:18.918,712.339
214,1 Feb 2000 14:56:00.503,1 Feb 2000 15:07:14.909,674.407
215,1 Feb 2000 16:45:13.074,1 Feb 2000 16:57:54.353,761.279
216,1 Feb 2000 18:33:50.921,1 Feb 2000 18:46:39.427,768.506
217,1 Feb 2000 20:24:29.199,1 Feb 2000 20:30:23.243,354.044
218,2 Feb 2000 08:17:51.876,2 Feb 2000 08:22:22.812,270.936
219,2 Feb 2000 10:00:52.131,2 Feb 2000 10:13:32.922,760.791
220,2 Feb 2000 11:49:25.237,2 Feb 2000 12:02:11.833,766.596
221,2 Feb 2000 13:40:02.328,2 Feb 2000 13:51:19.733,677.405
222,2 Feb 2000 15:30:03.936,2 Feb 2000 15:41:50.245,706.309
223,2 Feb 2000 17:18:50.085,2 Feb 2000 17:31:58.523,788.438
224,2 Feb 2000 19:07:46.438,2 Feb 2000 19:19:06.908,680.470
225,3 Feb 2000 08:47:46.226,3 Feb 2000 08:58:00.223,613.997
226,3 Feb 2000 10:34:03.971,3 Feb 2000 10:47:14.257,790.286
227,3 Feb 2000 12:23:50.104,3 Feb 2000 12:35:54.392,724.288
228,3 Feb 2000 14:14:29.034,3 Feb 2000 14:25:39.492,670.458
229,3 Feb 2000 16:03:51.206,3 Feb 2000 16:16:21.463,750.258
230,3 Feb 2000 17:52:28.207,3 Feb 2000 18:05:27.910,779.703
231,3 Feb 2000 19:42:27.788,3 Feb 2000 19:50:12.620,464.831
232,4 Feb 2000 09:19:46.297,4 Feb 2000 09:32:08.449,742.152
233,4 Feb 2000 11:07:55.071,4 Feb 2000 11:20:50.689,775.618
234,4 Feb 2000 12:58:25.732,4 Feb 2000 13:09:50.458,684.726
235,4 Feb 2000 14:48:37.625,4 Feb 2000 15:00:13.173,695.549
236,4 Feb 2000 16:37:29.340,4 Feb 2000 16:50:33.168,783.828
237,4 Feb 2000 18:26:17.860,4 Feb 2000 18:38:10.831,712.972
238,5 Feb 2000 08:07:06.470,5 Feb 2000 08:16:22.012,555.542
239,5 Feb 2000 09:52:45.455,5 Feb 2000 10:05:52.990,787.535
240,5 Feb 2000 11:42:14.433,5 Feb 2000 11:54:30.868,736.436
241,5 Feb 2000 13:32:56.173,5 Feb 2000 13:44:05.145,668.972
242,5 Feb 2000 15:22:28.663,5 Feb 2000 15:34:47.125,738.462
243,5 Feb 2000 17:11:06.298,5 Feb 2000 17:24:13.023,786.725
244,5 Feb 2000 19:00:40.695,5 Feb 2000 19:09:44.921,544.226
245,6 Feb 2000 08:38:44.667,6 Feb 2000 08:50:42.375,717.708
246,6 Feb 2000 10:26:26.995,6 Feb 2000 10:39:29.822,782.827
247,6 Feb 2000 12:16:48.724,6 Feb 2000 12:28:22.590,693.867
248,6 Feb 2000 14:07:09.990,6 Feb 2000 14:18:36.134,686.144
249,6 Feb 2000 15:56:08.499,6 Feb 2000 16:09:05.464,776.965
250,6 Feb 2000 17:44:51.472,6 Feb 2000 17:57:09.947,738.476
251,7 Feb 2000 07:26:36.694,7 Feb 2000 07:34:36.530,479.836
252,7 Feb 2000 09:11:30.036,7 Feb 2000 09:24:31.189,781.154
253,7 Feb 2000 11:00:39.876,7 Feb 2000 11:13:08.195,748.319
254,7 Feb 2000 12:51:22.030,7 Feb 2000 13:02:32.062,670.031
255,7 Feb 2000 14:41:05.294,7 Feb 2000 14:53:11.617,726.324
256,7 Feb 2000 16:29:44.953,7 Feb 2000 16:42:55.014,790.061
257,7 Feb 2000 18:19:01.480,7 Feb 2000 18:29:06.620,605.140
258,8 Feb 2000 07:57:47.738,8 Feb 2000 08:09:14.211,686.473
259,8 Feb 2000 09:45:01.234,8 Feb 2000 09:58:09.073,787.839
260,8 Feb 2000 11:35:11.635,8 Feb 2000 11:46:56.061,704.426
261,8 Feb 2000 13:25:40.953,8 Feb 2000 13:36:59.445,678.493
262,8 Feb 2000 15:14:47.412,8 Feb 2000 15:27:35.633,768.222
263,8 Feb 2000 17:03:26.763,8 Feb 2000 17:16:04.796,758.032
264,8 Feb 2000 18:54:50.642,8 Feb 2000 18:58:47.505,236.864
265,9 Feb 2000 06:46:22.387,9 Feb 2000 06:52:38.341,375.954
266,9 Feb 2000 08:30:17.930,9 Feb 2000 08:43:08.625,770.695
267,9 Feb 2000 10:19:06.725,9 Feb 2000 10:31:46.226,759.501
268,9 Feb 2000 12:09:46.774,9 Feb 2000 12:21:00.350,673.577
269,9 Feb 2000 13:59:40.946,9 Feb 2000 14:11:35.258,714.311
270,9 Feb 2000 15:48:23.989,9 Feb 2000 16:01:34.101,790.112
271,9 Feb 2000 17:37:27.376,9 Feb 2000 17:48:20.527,653.150
272,10 Feb 2000 07:16:56.203,10 Feb 2000 07:27:43.275,647.071
273,10 Feb 2000 09:03:37.988,10 Feb 2000 09:16:48.276,790.289
274,10 Feb 2000 10:53:34.793,10 Feb 2000 11:05:30.763,715.971
275,10 Feb 2000 12:44:10.478,10 Feb 2000 12:55:23.412,672.934
276,10 Feb 2000 14:33:25.915,10 Feb 2000 14:46:03.909,757.994
277,10 Feb 2000 16:22:03.344,10 Feb 2000 16:34:55.769,772.424
278,10 Feb 2000 18:12:27.531,10 Feb 2000 18:19:00.535,393.005
279,11 Feb 2000 06:06:43.762,11 Feb 2000 06:10:07.279,203.517
280,11 Feb 2000 07:49:09.426,11 Feb 2000 08:01:45.043,755.617
281,11 Feb 2000 09:37:35.251,11 Feb 2000 09:50:24.798,769.546
282,11 Feb 2000 11:28:10.631,11 Feb 2000 11:39:30.077,679.446
283,11 Feb 2000 13:18:15.480,11 Feb 2000 13:29:58.358,702.878
284,11 Feb 2000 15:07:03.210,11 Feb 2000 15:20:10.489,787.279
285,11 Feb 2000 16:55:56.879,11 Feb 2000 17:07:28.183,691.304
286,12 Feb 2000 06:36:11.095,12 Feb 2000 06:46:08.568,597.473
287,12 Feb 2000 08:22:17.468,12 Feb 2000 08:35:27.265,789.797
288,12 Feb 2000 10:11:58.530,12 Feb 2000 10:24:06.561,728.031
289,12 Feb 2000 12:02:38.571,12 Feb 2000 12:13:48.301,669.730
290,12 Feb 2000 13:52:03.856,12 Feb 2000 14:04:30.543,746.686
291,12 Feb 2000 15:40:40.899,12 Feb 2000 15:53:43.183,782.285
292,12 Feb 2000 17:30:31.694,12 Feb 2000 17:38:43.478,491.783
293,13 Feb 2000 07:08:04.842,13 Feb 2000 07:20:20.122,735.280
294,13 Feb 2000 08:56:05.706,13 Feb 2000 09:09:03.753,778.047
295,13 Feb 2000 10:46:33.876,13 Feb 2000 10:58:01.243,687.367
296,13 Feb 2000 12:36:48.772,13 Feb 2000 12:48:21.265,692.493
297,13 Feb 2000 14:25:42.451,13 Feb 2000 14:38:44.386,781.934
298,13 Feb 2000 16:14:29.039,13 Feb 2000 16:26:30.555,721.516
299,14 Feb 2000 05:55:34.066,14 Feb 2000 06:04:28.454,534.388
300,14 Feb 2000 07:40:59.879,14 Feb 2000 07:54:05.857,785.978
301,14 Feb 2000 09:30:23.172,14 Feb 2000 09:42:43.315,740.143
302,14 Feb 2000 11:21:05.300,14 Feb 2000 11:32:14.328,669.029
303,14 Feb 2000 13:10:41.074,14 Feb 2000 13:22:55.813,734.740
304,14 Feb 2000 14:59:19.184,14 Feb 2000 15:12:27.312,788.129
305,14 Feb 2000 16:48:47.453,14 Feb 2000 16:58:12.081,564.628
306,15 Feb 2000 06:27:04.601,15 Feb 2000 06:38:53.466,708.864
307,15 Feb 2000 08:14:38.317,15 Feb 2000 08:27:42.936,784.620
308,15 Feb 2000 10:04:56.806,15 Feb 2000 10:16:33.796,696.990
309,15 Feb 2000 11:55:20.712,15 Feb 2000 12:06:44.296,683.584
310,15 Feb 2000 13:44:21.552,15 Feb 2000 13:57:16.003,774.452
311,15 Feb 2000 15:33:03.216,15 Feb 2000 15:45:28.313,745.097
312,16 Feb 2000 05:15:08.222,16 Feb 2000 05:22:39.888,451.665
313,16 Feb 2000 06:59:45.452,16 Feb 2000 07:12:43.844,778.392
314,16 Feb 2000 08:48:49.016,16 Feb 2000 09:01:20.875,751.859
315,16 Feb 2000 10:39:30.793,16 Feb 2000 10:50:41.657,670.863
316,16 Feb 2000 12:29:17.421,16 Feb 2000 12:41:20.008,722.587
317,16 Feb 2000 14:17:57.982,16 Feb 2000 14:31:08.389,790.407
318,16 Feb 2000 16:07:10.032,16 Feb 2000 16:17:31.161,621.129
319,17 Feb 2000 05:46:09.246,17 Feb 2000 05:57:24.528,675.282
320,17 Feb 2000 07:33:13.305,17 Feb 2000 07:46:22.192,788.887
321,17 Feb 2000 09:23:19.758,17 Feb 2000 09:35:07.659,707.901
322,17 Feb 2000 11:13:51.233,17 Feb 2000 11:25:07.779,676.546
323,17 Feb 2000 13:03:00.355,17 Feb 2000 13:15:45.564,765.209
324,17 Feb 2000 14:51:38.944,17 Feb 2000 15:04:21.925,762.981
325,17 Feb 2000 16:42:39.205,17 Feb 2000 16:47:35.168,295.963
326,18 Feb 2000 04:35:01.084,18 Feb 2000 04:40:35.385,334.302
327,18 Feb 2000 06:18:34.428,18 Feb 2000 06:31:21.002,766.574
328,18 Feb 2000 08:07:16.354,18 Feb 2000 08:19:59.091,762.737
329,18 Feb 2000 09:57:55.239,18 Feb 2000 10:09:10.387,675.148
330,18 Feb 2000 11:47:52.741,18 Feb 2000 11:59:43.449,710.708
331,18 Feb 2000 13:36:37.086,18 Feb 2000 13:49:46.621,789.534
332,18 Feb 2000 15:25:37.166,18 Feb 2000 15:36:43.014,665.849
333,19 Feb 2000 05:05:19.560,19 Feb 2000 05:15:52.557,632.997
334,19 Feb 2000 06:51:50.882,19 Feb 2000 07:05:01.350,790.467
335,19 Feb 2000 08:41:43.062,19 Feb 2000 08:53:42.715,719.653
336,19 Feb 2000 10:32:20.314,19 Feb 2000 10:43:32.008,671.694
337,19 Feb 2000 12:21:38.702,19 Feb 2000 12:34:13.308,754.605
338,19 Feb 2000 14:10:15.856,19 Feb 2000 14:23:11.772,775.917
339,19 Feb 2000 16:00:28.102,19 Feb 2000 16:07:35.318,427.216
340,20 Feb 2000 03:55:58.185,20 Feb 2000 03:57:29.487,91.301
341,20 Feb 2000 05:37:27.094,20 Feb 2000 05:49:57.044,749.950
342,20 Feb 2000 07:25:45.448,20 Feb 2000 07:38:37.794,772.346
343,20 Feb 2000 09:16:18.877,20 Feb 2000 09:27:40.561,681.684
344,20 Feb 2000 11:06:26.903,20 Feb 2000 11:18:06.453,699.550
345,20 Feb 2000 12:55:16.337,20 Feb 2000 13:08:22.220,785.883
346,20 Feb 2000 14:44:07.573,20 Feb 2000 14:55:48.958,701.385
347,21 Feb 2000 04:24:36.723,21 Feb 2000 04:34:16.399,579.676
348,21 Feb 2000 06:10:31.240,21 Feb 2000 06:23:40.238,788.998
349,21 Feb 2000 08:00:07.042,21 Feb 2000 08:12:18.822,731.780
350,21 Feb 2000 09:50:47.976,21 Feb 2000 10:01:57.223,669.248
351,21 Feb 2000 11:40:16.438,21 Feb 2000 11:52:39.493,743.055
352,21 Feb 2000 13:28:53.659,21 Feb 2000 13:41:58.149,784.490
353,21 Feb 2000 15:18:36.653,21 Feb 2000 15:27:13.024,516.371
354,22 Feb 2000 04:56:23.799,22 Feb 2000 05:08:31.633,727.834
355,22 Feb 2000 06:44:16.546,22 Feb 2000 06:57:16.841,780.294
356,22 Feb 2000 08:34:41.990,22 Feb 2000 08:46:12.162,690.172
357,22 Feb 2000 10:24:59.789,22 Feb 2000 10:36:29.364,689.575
358,22 Feb 2000 12:13:55.549,22 Feb 2000 12:26:55.394,779.844
359,22 Feb 2000 14:02:40.412,22 Feb 2000 14:14:49.846,729.435
360,23 Feb 2000 03:44:02.703,23 Feb 2000 03:52:34.116,511.413
361,23 Feb 2000 05:29:14.608,23 Feb 2000 05:42:18.664,784.056
362,23 Feb 2000 07:18:32.022,23 Feb 2000 07:30:55.841,743.819
363,23 Feb 2000 09:09:14.307,23 Feb 2000 09:20:23.638,669.331
364,23 Feb 2000 10:58:53.400,23 Feb 2000 11:11:04.401,731.000
365,23 Feb 2000 12:47:32.126,23 Feb 2000 13:00:41.313,789.187
366,23 Feb 2000 14:36:54.854,23 Feb 2000 14:46:38.351,583.497
367,24 Feb 2000 04:15:24.996,24 Feb 2000 04:27:04.334,699.339
368,24 Feb 2000 06:02:49.868,24 Feb 2000 06:15:56.062,786.194
369,24 Feb 2000 07:53:04.889,24 Feb 2000 08:04:45.128,700.239
370,24 Feb 2000 09:43:31.297,24 Feb 2000 09:54:52.502,681.205
371,24 Feb 2000 11:32:34.575,24 Feb 2000 11:45:26.355,771.780
372,24 Feb 2000 13:21:15.108,24 Feb 2000 13:33:46.281,751.173
373,24 Feb 2000 15:13:27.778,24 Feb 2000 15:15:31.538,123.760
374,25 Feb 2000 03:03:41.422,25 Feb 2000 03:10:41.823,420.401
375,25 Feb 2000 04:48:01.201,25 Feb 2000 05:00:56.423,775.222
376,25 Feb 2000 06:36:58.296,25 Feb 2000 06:49:33.618,755.322
377,25 Feb 2000 08:27:39.453,25 Feb 2000 08:38:51.394,671.941
378,25 Feb 2000 10:17:29.446,25 Feb 2000 10:29:28.332,718.886
379,25 Feb 2000 12:06:11.031,25 Feb 2000 12:19:21.491,790.460
380,25 Feb 2000 13:55:19.010,25 Feb 2000 14:05:55.018,636.008
381,26 Feb 2000 03:34:31.291,26 Feb 2000 03:45:34.555,663.265
382,26 Feb 2000 05:21:25.630,26 Feb 2000 05:34:35.305,789.675
383,26 Feb 2000 07:11:27.912,26 Feb 2000 07:23:19.372,711.460
384,26 Feb 2000 09:02:01.374,26 Feb 2000 09:13:16.184,674.810
385,26 Feb 2000 10:51:13.253,26 Feb 2000 11:03:55.328,762.076
386,26 Feb 2000 12:39:51.235,26 Feb 2000 12:52:38.699,767.464
387,26 Feb 2000 14:30:33.411,26 Feb 2000 14:36:16.922,343.510
388,27 Feb 2000 02:23:43.848,27 Feb 2000 02:28:28.631,284.783
389,27 Feb 2000 04:06:51.280,27 Feb 2000 04:19:33.263,761.983
390,27 Feb 2000 05:55:26.147,27 Feb 2000 06:08:11.998,765.851
391,27 Feb 2000 07:46:03.619,27 Feb 2000 07:57:20.563,676.944
392,27 Feb 2000 09:36:04.422,27 Feb 2000 09:47:51.599,707.177
393,27 Feb 2000 11:24:50.199,27 Feb 2000 11:37:58.890,788.691
394,27 Feb 2000 13:13:47.265,27 Feb 2000 13:25:04.937,677.672
395,28 Feb 2000 02:53:43.565,28 Feb 2000 03:04:01.443,617.878
396,28 Feb 2000 04:40:04.035,28 Feb 2000 04:53:14.399,790.364
397,28 Feb 2000 06:29:51.389,28 Feb 2000 06:41:54.762,723.373
398,28 Feb 2000 08:20:30.010,28 Feb 2000 08:31:40.691,670.680
399,28 Feb 2000 10:09:51.427,28 Feb 2000 10:22:22.559,751.132
400,28 Feb 2000 11:58:28.445,28 Feb 2000 12:11:27.448,779.003
401,28 Feb 2000 13:48:30.375,28 Feb 2000 13:56:08.135,457.759
402,29 Feb 2000 03:25:45.143,29 Feb 2000 03:38:08.898,743.754
403,29 Feb 2000 05:13:55.833,29 Feb 2000 05:26:50.825,774.992
404,29 Feb 2000 07:04:27.066,29 Feb 2000 07:15:51.179,684.113
405,29 Feb 2000 08:54:38.201,29 Feb 2000 09:06:14.539,696.338
406,29 Feb 2000 10:43:29.457,29 Feb 2000 10:56:33.722,784.265
407,29 Feb 2000 12:32:18.492,29 Feb 2000 12:44:09.250,710.758
408,1 Mar 2000 02:13:03.174,1 Mar 2000 02:22:23.660,560.485
409,1 Mar 2000 03:58:45.303,1 Mar 2000 04:11:53.163,787.860
410,1 Mar 2000 05:48:15.644,1 Mar 2000 06:00:31.170,735.525
411,1 Mar 2000 07:38:57.250,1 Mar 2000 07:50:06.259,669.009
412,1 Mar 2000 09:28:28.939,1 Mar 2000 09:40:48.324,739.385
413,1 Mar 2000 11:17:06.482,1 Mar 2000 11:30:12.807,786.325
414,1 Mar 2000 13:06:42.496,1 Mar 2000 13:15:41.426,538.930
415,2 Mar 2000 02:44:43.180,2 Mar 2000 02:56:42.963,719.783
416,2 Mar 2000 04:32:27.589,2 Mar 2000 04:45:29.945,782.356
417,2 Mar 2000 06:22:50.076,2 Mar 2000 06:34:23.207,693.131
418,2 Mar 2000 08:13:10.671,2 Mar 2000 08:24:37.487,686.815
419,2 Mar 2000 10:02:08.627,2 Mar 2000 10:15:06.187,777.560
420,2 Mar 2000 11:50:51.956,2 Mar 2000 12:03:08.709,736.753
421,3 Mar 2000 01:32:32.510,3 Mar 2000 01:40:38.856,486.346
422,3 Mar 2000 03:17:29.636,3 Mar 2000 03:30:31.407,781.771
423,3 Mar 2000 05:06:40.992,3 Mar 2000 05:19:08.437,747.444
424,3 Mar 2000 06:57:23.197,3 Mar 2000 07:08:33.074,669.876
425,3 Mar 2000 08:47:05.636,3 Mar 2000 08:59:12.893,727.257
426,3 Mar 2000 10:35:45.103,3 Mar 2000 10:48:55.029,789.925
427,3 Mar 2000 12:25:02.804,3 Mar 2000 12:35:03.807,601.003
428,4 Mar 2000 02:03:45.872,4 Mar 2000 02:15:14.971,689.099
429,4 Mar 2000 03:51:01.645,4 Mar 2000 04:04:09.187,787.542
430,4 Mar 2000 05:41:12.981,4 Mar 2000 05:52:56.579,703.599
431,4 Mar 2000 07:31:41.740,4 Mar 2000 07:43:00.760,679.020
432,4 Mar 2000 09:20:47.562,4 Mar 2000 09:33:36.511,768.949
433,4 Mar 2000 11:09:27.133,4 Mar 2000 11:22:03.863,756.730
434,4 Mar 2000 13:00:58.230,4 Mar 2000 13:04:37.654,219.424
435,5 Mar 2000 00:52:16.685,5 Mar 2000 00:58:41.966,385.281
436,5 Mar 2000 02:36:17.269,5 Mar 2000 02:49:08.912,771.643
437,5 Mar 2000 04:25:07.724,5 Mar 2000 04:37:46.419,758.695
438,5 Mar 2000 06:15:48.016,5 Mar 2000 06:27:01.258,673.241
439,5 Mar 2000 08:05:41.365,5 Mar 2000 08:17:36.588,715.223
440,5 Mar 2000 09:54:24.107,5 Mar 2000 10:07:34.328,790.221
441,5 Mar 2000 11:43:28.373,5 Mar 2000 11:54:18.239,649.866
442,6 Mar 2000 01:22:53.897,6 Mar 2000 01:33:44.272,650.375
443,6 Mar 2000 03:09:38.195,6 Mar 2000 03:22:48.402,790.207
444,6 Mar 2000 04:59:36.107,6 Mar 2000 05:11:31.192,715.085
445,6 Mar 2000 06:50:11.372,6 Mar 2000 07:01:24.668,673.296
446,6 Mar 2000 08:39:26.100,6 Mar 2000 08:52:04.922,758.822
447,6 Mar 2000 10:28:03.623,6 Mar 2000 10:40:55.117,771.494
448,6 Mar 2000 12:18:31.081,6 Mar 2000 12:24:54.935,383.854
449,7 Mar 2000 00:12:33.278,7 Mar 2000 00:16:15.472,222.194
450,7 Mar 2000 01:55:08.482,7 Mar 2000 02:07:45.414,756.932
451,7 Mar 2000 03:43:36.113,7 Mar 2000 03:56:24.953,768.840
452,7 Mar 2000 05:34:11.930,7 Mar 2000 05:45:30.875,678.944
453,7 Mar 2000 07:24:15.986,7 Mar 2000 07:35:59.717,703.732
454,7 Mar 2000 09:13:03.322,7 Mar 2000 09:26:10.916,787.594
455,7 Mar 2000 11:01:57.639,7 Mar 2000 11:13:26.331,688.692
456,8 Mar 2000 00:42:08.254,8 Mar 2000 00:52:09.892,601.638
457,8 Mar 2000 02:28:17.465,8 Mar 2000 02:41:27.413,789.947
458,8 Mar 2000 04:17:59.789,8 Mar 2000 04:30:06.908,727.119
459,8 Mar 2000 06:08:39.570,8 Mar 2000 06:19:49.478,669.908
460,8 Mar 2000 07:58:04.086,8 Mar 2000 08:10:31.671,747.584
461,8 Mar 2000 09:46:41.119,8 Mar 2000 09:59:42.794,781.675
462,8 Mar 2000 11:36:33.994,8 Mar 2000 11:44:39.338,485.344
463,9 Mar 2000 01:14:03.586,9 Mar 2000 01:26:20.603,737.017
464,9 Mar 2000 03:02:06.412,9 Mar 2000 03:15:03.883,777.471
465,9 Mar 2000 04:52:35.211,9 Mar 2000 05:04:01.932,686.721
466,9 Mar 2000 06:42:49.373,9 Mar 2000 06:54:22.624,693.250
467,9 Mar 2000 08:31:42.565,9 Mar 2000 08:44:44.995,782.429
468,9 Mar 2000 10:20:29.622,9 Mar 2000 10:32:29.079,719.457
469,10 Mar 2000 00:01:30.530,10 Mar 2000 00:10:30.265,539.735
470,10 Mar 2000 01:46:59.650,10 Mar 2000 02:00:06.037,786.387
471,10 Mar 2000 03:36:24.350,10 Mar 2000 03:48:43.598,739.248
472,10 Mar 2000 05:27:06.397,10 Mar 2000 05:38:15.413,669.016
473,10 Mar 2000 07:16:41.361,10 Mar 2000 07:28:57.036,735.674
474,10 Mar 2000 09:05:19.349,10 Mar 2000 09:18:27.163,787.814
475,10 Mar 2000 10:54:49.087,10 Mar 2000 11:04:08.808,559.721
476,11 Mar 2000 00:33:02.997,11 Mar 2000 00:44:54.092,711.094
477,11 Mar 2000 02:20:38.851,11 Mar 2000 02:33:43.052,784.201
478,11 Mar 2000 04:10:58.152,11 Mar 2000 04:22:34.380,696.229
479,11 Mar 2000 06:01:21.417,11 Mar 2000 06:12:45.638,684.221
480,11 Mar 2000 07:50:21.678,11 Mar 2000 08:03:16.773,775.094
481,11 Mar 2000 09:39:03.660,11 Mar 2000 09:51:27.162,743.502
482,11 Mar 2000 23:21:03.669,11 Mar 2000 23:28:42.504,458.835
483,12 Mar 2000 01:05:44.974,12 Mar 2000 01:18:44.080,779.106
484,12 Mar 2000 02:54:50.092,12 Mar 2000 03:07:21.097,751.006
485,12 Mar 2000 04:45:31.977,12 Mar 2000 04:56:42.638,670.661
486,12 Mar 2000 06:35:17.777,12 Mar 2000 06:47:21.301,723.524
487,12 Mar 2000 08:23:58.113,12 Mar 2000 08:37:08.463,790.350
488,12 Mar 2000 10:13:11.241,12 Mar 2000 10:23:28.513,617.272
489,12 Mar 2000 23:52:07.249,13 Mar 2000 00:03:25.345,678.095
490,13 Mar 2000 01:39:13.650,13 Mar 2000 01:52:22.306,788.656
491,13 Mar 2000 03:29:21.090,13 Mar 2000 03:41:08.145,707.055
492,13 Mar 2000 05:19:52.042,13 Mar 2000 05:31:09.076,677.034
493,13 Mar 2000 07:09:00.507,13 Mar 2000 07:21:46.481,765.974
494,13 Mar 2000 08:57:39.280,13 Mar 2000 09:10:21.080,761.800
495,13 Mar 2000 10:48:44.762,13 Mar 2000 10:53:27.401,282.639
496,13 Mar 2000 22:40:54.599,13 Mar 2000 22:46:39.715,345.116
497,14 Mar 2000 00:24:33.681,14 Mar 2000 00:37:21.303,767.621
498,14 Mar 2000 02:13:17.306,14 Mar 2000 02:25:59.267,761.961
499,14 Mar 2000 04:03:56.491,14 Mar 2000 04:15:11.258,674.767
500,14 Mar 2000 05:53:53.177,14 Mar 2000 06:05:44.788,711.611
501,14 Mar 2000 07:42:37.197,14 Mar 2000 07:55:46.903,789.705
502,14 Mar 2000 09:31:38.079,14 Mar 2000 09:42:40.859,662.780
503,14 Mar 2000 23:11:17.096,14 Mar 2000 23:21:53.635,636.539
504,15 Mar 2000 00:57:51.023,15 Mar 2000 01:11:01.474,790.451
505,15 Mar 2000 02:47:44.355,15 Mar 2000 02:59:43.114,718.759
506,15 Mar 2000 04:38:21.233,15 Mar 2000 04:49:33.238,672.006
507,15 Mar 2000 06:27:38.891,15 Mar 2000 06:40:14.353,755.462
508,15 Mar 2000 08:16:16.105,15 Mar 2000 08:29:11.198,775.093
509,15 Mar 2000 10:06:31.160,15 Mar 2000 10:13:30.264,419.104
510,15 Mar 2000 22:01:38.325,15 Mar 2000 22:03:46.968,128.643
511,15 Mar 2000 23:43:26.050,15 Mar 2000 23:55:57.437,751.387
512,16 Mar 2000 01:31:46.257,16 Mar 2000 01:44:37.940,771.683
513,16 Mar 2000 03:22:20.181,16 Mar 2000 03:33:41.320,681.139
514,16 Mar 2000 05:12:27.429,16 Mar 2000 05:24:07.813,700.384
515,16 Mar 2000 07:01:16.441,16 Mar 2000 07:14:22.694,786.254
516,16 Mar 2000 08:50:08.266,16 Mar 2000 09:01:47.218,698.952
517,16 Mar 2000 22:30:33.683,16 Mar 2000 22:40:17.844,584.161
518,17 Mar 2000 00:16:31.161,17 Mar 2000 00:29:40.385,789.225
519,17 Mar 2000 02:06:08.270,17 Mar 2000 02:18:19.143,730.873
520,17 Mar 2000 03:56:48.998,17 Mar 2000 04:07:58.370,669.373
521,17 Mar 2000 05:46:16.676,17 Mar 2000 05:58:40.647,743.972
522,17 Mar 2000 07:34:53.851,17 Mar 2000 07:47:57.828,783.977
523,17 Mar 2000 09:24:38.708,17 Mar 2000 09:33:09.178,510.470
524,17 Mar 2000 23:02:22.433,17 Mar 2000 23:14:32.146,729.714
525,18 Mar 2000 00:50:17.194,18 Mar 2000 01:03:16.959,779.765
526,18 Mar 2000 02:40:43.322,18 Mar 2000 02:52:12.813,689.490
527,18 Mar 2000 04:31:00.413,18 Mar 2000 04:42:30.719,690.306
528,18 Mar 2000 06:19:55.658,18 Mar 2000 06:32:56.044,780.386
529,18 Mar 2000 08:08:40.941,18 Mar 2000 08:20:48.464,727.523
530,18 Mar 2000 21:49:58.893,18 Mar 2000 21:58:36.121,517.228
531,18 Mar 2000 23:35:14.288,18 Mar 2000 23:48:18.851,784.564
532,19 Mar 2000 01:24:33.163,19 Mar 2000 01:36:56.096,742.932
533,19 Mar 2000 03:15:15.423,19 Mar 2000 03:26:24.687,669.264
534,19 Mar 2000 05:04:53.699,19 Mar 2000 05:17:05.640,731.941
535,19 Mar 2000 06:53:32.273,19 Mar 2000 07:06:41.228,788.955
536,19 Mar 2000 08:42:56.336,19 Mar 2000 08:52:35.278,578.942
537,19 Mar 2000 22:21:23.268,19 Mar 2000 22:33:05.005,701.737
538,20 Mar 2000 00:08:50.338,20 Mar 2000 00:21:56.169,785.831
539,20 Mar 2000 01:59:06.225,20 Mar 2000 02:10:45.676,699.451
540,20 Mar 2000 03:49:32.025,20 Mar 2000 04:00:53.829,681.804
541,20 Mar 2000 05:38:34.700,20 Mar 2000 05:51:27.161,772.461
542,20 Mar 2000 07:27:15.509,20 Mar 2000 07:39:45.220,749.711
543,20 Mar 2000 09:19:46.667,20 Mar 2000 09:21:10.278,83.611
544,20 Mar 2000 21:09:36.419,20 Mar 2000 21:16:44.805,428.387
545,20 Mar 2000 22:54:00.625,20 Mar 2000 23:06:56.666,776.040
546,21 Mar 2000 00:42:59.328,21 Mar 2000 00:55:33.818,754.490
547,21 Mar 2000 02:33:40.652,21 Mar 2000 02:44:52.336,671.684
548,21 Mar 2000 04:23:29.817,21 Mar 2000 04:35:29.636,719.819
549,21 Mar 2000 06:12:11.147,21 Mar 2000 06:25:21.624,790.476
550,21 Mar 2000 08:01:20.113,21 Mar 2000 08:11:52.521,632.409
551,21 Mar 2000 21:40:29.148,21 Mar 2000 21:51:35.437,666.288
552,21 Mar 2000 23:27:25.906,21 Mar 2000 23:40:35.412,789.506
553,22 Mar 2000 01:17:29.227,22 Mar 2000 01:29:19.824,710.597
554,22 Mar 2000 03:08:02.209,22 Mar 2000 03:19:17.457,675.248
555,22 Mar 2000 04:57:13.407,22 Mar 2000 05:09:56.281,762.874
556,22 Mar 2000 06:45:51.537,22 Mar 2000 06:58:37.929,766.392
557,22 Mar 2000 08:36:37.843,22 Mar 2000 08:42:10.327,332.484
558,22 Mar 2000 20:29:36.192,22 Mar 2000 20:34:34.043,297.851
559,22 Mar 2000 22:12:50.428,22 Mar 2000 22:25:33.583,763.155
560,23 Mar 2000 00:01:27.050,23 Mar 2000 00:14:12.155,765.105
561,23 Mar 2000 01:52:04.883,23 Mar 2000 02:03:21.394,676.511
562,23 Mar 2000 03:42:04.876,23 Mar 2000 03:53:52.941,708.065
563,23 Mar 2000 05:30:50.299,23 Mar 2000 05:43:59.225,788.926
564,23 Mar 2000 07:19:48.098,23 Mar 2000 07:31:02.910,674.812
565,23 Mar 2000 20:59:40.928,23 Mar 2000 21:10:02.614,621.686
566,23 Mar 2000 22:46:04.102,23 Mar 2000 22:59:14.521,790.420
567,24 Mar 2000 00:35:52.659,24 Mar 2000 00:47:55.129,722.470
568,24 Mar 2000 02:26:30.953,24 Mar 2000 02:37:41.891,670.938
569,24 Mar 2000 04:15:51.622,24 Mar 2000 04:28:23.634,752.012
570,24 Mar 2000 06:04:28.675,24 Mar 2000 06:17:26.941,778.266
571,24 Mar 2000 07:54:33.045,24 Mar 2000 08:02:03.513,450.468
572,24 Mar 2000 21:31:43.995,24 Mar 2000 21:44:09.320,745.325
573,24 Mar 2000 23:19:56.586,24 Mar 2000 23:32:50.950,774.364
574,25 Mar 2000 01:10:28.374,25 Mar 2000 01:21:51.899,683.524
575,25 Mar 2000 03:00:38.748,25 Mar 2000 03:12:15.893,697.145
576,25 Mar 2000 04:49:29.549,25 Mar 2000 05:02:34.241,784.692
577,25 Mar 2000 06:38:19.124,25 Mar 2000 06:50:07.615,708.490
578,25 Mar 2000 20:18:59.914,25 Mar 2000 20:28:25.243,565.329
579,25 Mar 2000 22:04:45.145,25 Mar 2000 22:17:53.314,788.169
580,25 Mar 2000 23:54:16.842,26 Mar 2000 00:06:31.462,734.620
581,26 Mar 2000 01:44:58.295,26 Mar 2000 01:56:07.370,669.075
582,26 Mar 2000 03:34:29.187,26 Mar 2000 03:46:49.497,740.309
583,26 Mar 2000 05:23:06.646,26 Mar 2000 05:36:12.553,785.907
584,26 Mar 2000 07:12:44.337,26 Mar 2000 07:21:37.836,533.499
585,26 Mar 2000 20:50:41.697,26 Mar 2000 21:02:43.509,721.811
586,26 Mar 2000 22:38:28.182,26 Mar 2000 22:51:30.046,781.864
587,27 Mar 2000 00:28:51.406,27 Mar 2000 00:40:23.823,692.417
588,27 Mar 2000 02:19:11.320,27 Mar 2000 02:30:38.828,687.508
589,27 Mar 2000 04:08:08.732,27 Mar 2000 04:21:06.882,778.150
590,27 Mar 2000 05:56:52.435,27 Mar 2000 06:09:07.425,734.990
591,27 Mar 2000 19:38:28.385,27 Mar 2000 19:46:41.092,492.706
592,27 Mar 2000 21:23:29.235,27 Mar 2000 21:36:31.602,782.366
593,27 Mar 2000 23:12:42.096,27 Mar 2000 23:25:08.666,746.570
594,28 Mar 2000 01:03:24.335,28 Mar 2000 01:14:34.083,669.748
595,28 Mar 2000 02:53:05.949,28 Mar 2000 03:05:14.151,728.202
596,28 Mar 2000 04:41:45.227,28 Mar 2000 04:54:55.004,789.777
597,28 Mar 2000 06:31:04.146,28 Mar 2000 06:41:00.918,596.772
598,28 Mar 2000 20:09:44.014,28 Mar 2000 20:21:15.696,691.682
599,28 Mar 2000 21:57:02.045,28 Mar 2000 22:10:09.285,787.240
600,28 Mar 2000 23:47:14.307,28 Mar 2000 23:58:57.089,702.782
601,29 Mar 2000 01:37:42.495,29 Mar 2000 01:49:02.064,679.569
602,29 Mar 2000 03:26:47.688,29 Mar 2000 03:39:37.360,769.673
603,29 Mar 2000 05:15:27.493,29 Mar 2000 05:28:02.891,755.399
604,29 Mar 2000 07:07:06.663,29 Mar 2000 07:10:26.894,200.232
605,29 Mar 2000 18:58:11.116,29 Mar 2000 19:04:45.429,394.314
606,29 Mar 2000 20:42:16.612,29 Mar 2000 20:55:09.168,772.557
607,29 Mar 2000 22:31:08.711,29 Mar 2000 22:43:46.596,757.885
608,30 Mar 2000 00:21:49.232,30 Mar 2000 00:33:02.157,672.925
609,30 Mar 2000 02:11:41.755,30 Mar 2000 02:23:37.898,716.144
610,30 Mar 2000 04:00:24.213,30 Mar 2000 04:13:34.517,790.303
611,30 Mar 2000 05:49:29.376,30 Mar 2000 06:00:15.887,646.512
612,30 Mar 2000 19:28:51.603,30 Mar 2000 19:39:45.227,653.624
613,30 Mar 2000 21:15:38.401,30 Mar 2000 21:28:48.504,790.103
614,30 Mar 2000 23:05:37.405,30 Mar 2000 23:17:31.609,714.204
615,31 Mar 2000 00:56:12.236,31 Mar 2000 01:07:25.912,673.677
616,31 Mar 2000 02:45:26.259,31 Mar 2000 02:58:05.907,759.648
617,31 Mar 2000 04:34:03.896,31 Mar 2000 04:46:54.428,770.533
618,31 Mar 2000 06:24:34.767,31 Mar 2000 06:30:49.136,374.369
619,31 Mar 2000 18:18:23.563,31 Mar 2000 18:22:22.859,239.295
620,31 Mar 2000 20:01:07.537,31 Mar 2000 20:13:45.754,758.218
621,31 Mar 2000 21:49:36.965,31 Mar 2000 22:02:25.090,768.125
622,31 Mar 2000 23:40:13.206,31 Mar 2000 23:51:31.663,678.457
623,1 Apr 2000 01:30:16.462,1 Apr 2000 01:42:01.058,704.595
624,1 Apr 2000 03:19:03.408,1 Apr 2000 03:32:11.303,787.895
625,1 Apr 2000 05:07:58.395,1 Apr 2000 05:19:24.421,686.025

Statistics
"Min Duration",170,26 Jan 2000 09:50:42.740,26 Jan 2000 09:50:47.291,4.550
"Max Duration",549,21 Mar 2000 06:12:11.147,21 Mar 2000 06:25:21.624,790.476
"Mean Duration",,,,685.067
"Total Duration",,,,428167.031


